[{"name":"CÃšC Tá»ŠNH Y- gá»™i Ä‘áº§u tháº£o dÆ°á»£c","checkins":15,"page":{"id":"235615541127752","name":"CÃšC Tá»ŠNH Y- gá»™i Ä‘áº§u tháº£o dÆ°á»£c","link":"https://www.facebook.com/235615541127752","location":{"city":"Ho Chi Minh City","latitude":10.703804533799,"longitude":106.72721992951,"street":"Cáº§u PhÆ°á»›c Long"}},"id":"235615551127751"},{"name":"Chá»§ Äáº§u TÆ° Uy TÃ­n Keppel Land","checkins":0,"page":{"id":"107370254197861","name":"Chá»§ Äáº§u TÆ° Uy TÃ­n Keppel Land","link":"https://www.facebook.com/107370254197861","about":"Báº¥t Äá»™ng Sáº£n ","location":{"latitude":10.703384087121,"longitude":106.72240348192,"street":"117 há»“ van long"},"phone":"+84985665850"},"id":"107658824169004"},{"name":"Sáº£n Xuáº¥t ThÆ°Æ¡ng Máº¡i Äáº§u TÆ° Háº£i An-Natty","checkins":2,"page":{"id":"222923654890705","name":"Sáº£n Xuáº¥t ThÆ°Æ¡ng Máº¡i Äáº§u TÆ° Háº£i An-Natty","link":"https://www.facebook.com/222923654890705","location":{"city":"Ho Chi Minh City","latitude":10.7036,"longitude":106.73405,"street":"HáººM 115 Pháº¡m Há»¯u Láº§u"},"phone":"8-62989288"},"id":"222923661557371"},{"name":"CÄƒn Há»™ Q7 Nguyá»…n LÆ°Æ¡ng Báº±ng Chá»§ Äáº§u TÆ° HÆ°ng Thá»‹nh","checkins":1,"page":{"id":"104017837880242","name":"CÄƒn Há»™ Q7 Nguyá»…n LÆ°Æ¡ng Báº±ng Chá»§ Äáº§u TÆ° HÆ°ng Thá»‹nh","link":"https://www.facebook.com/104017837880242","about":"Dá»± Ã¡n cÄƒn há»™ Q7 Boulevard Ä‘Æ°á»ng Nguyá»…n LÆ°Æ¡ng Báº±ng, P.PhÃº Má»¹,Q.7","location":{"city":"Ho Chi Minh City","latitude":10.70456,"longitude":106.73237,"street":"Ä‘Æ°á»ng Nguyá»…n LÆ°Æ¡ng Báº±ng, PhÆ°á»ng PhÃº Má»¹, Quáº­n 7"},"phone":"+84933863867"},"id":"104017977880228"},{"name":"Há»™i Ä‘áº§u tÆ° báº¥t Ä‘á»™ng sáº£n","checkins":4,"page":{"id":"111285059588822","name":"Há»™i Ä‘áº§u tÆ° báº¥t Ä‘á»™ng sáº£n","link":"https://www.facebook.com/111285059588822","about":"River panaroma-cÄƒn há»™ 5 sao ven Ä‘Ã¡ng sá»‘ng","location":{"city":"Ho Chi Minh City","latitude":10.695568715565,"longitude":106.73985958099,"street":"huá»³nh táº¥n phÃ¡t quáº­n 7"},"phone":"0909198200"},"id":"111727259544602"},{"name":"Äáº¥t Ná»n Äáº§u TÆ° GiÃ¡ Ráº» Khu CÃ´ng Nghiá»‡p Cáº§u TrÃ m","checkins":0,"page":{"id":"268715603774137","name":"Äáº¥t Ná»n Äáº§u TÆ° GiÃ¡ Ráº» Khu CÃ´ng Nghiá»‡p Cáº§u TrÃ m","link":"https://www.facebook.com/268715603774137","about":"Äáº¥t Ná»n Khu CÃ´ng Nghiá»‡p Cáº§u TrÃ m GiÃ¡ Äáº§u TÆ° Sinh Lá»i Háº¥p Dáº«n!","location":{"city":"Ho Chi Minh City","latitude":10.69732,"longitude":106.7176099,"street":"09 Nguyá»…n Há»¯u Thá» ,PhÆ°á»›c Kiá»ƒn, NhÃ  BÃ¨."},"phone":"0902552238"},"id":"268715607107470"},{"name":"CÃ´ng Ty Tnhh Äáº§u TÆ° XÃ¢y Dá»±ng - Cáº¥p ThoÃ¡t NÆ°á»›c VÃ  MÃ´i TrÆ°á»ng Waseen","checkins":0,"website":"http://www.waseen.com.vn/","page":{"id":"1905300596356831","name":"CÃ´ng Ty Tnhh Äáº§u TÆ° XÃ¢y Dá»±ng - Cáº¥p ThoÃ¡t NÆ°á»›c VÃ  MÃ´i TrÆ°á»ng Waseen","link":"https://www.facebook.com/1905300596356831","about":"NÆ°á»›c sáº¡ch thá»i 4.0","location":{"city":"Ho Chi Minh City","latitude":10.70506908329,"longitude":106.72984457984,"street":"Sá»‘ 11, ÄÆ°á»ng D5, Khu Phá»‘ 2, PhÃº Má»¹, Quáº­n 7"},"phone":"+84909303545"},"id":"2279896922230528"},{"name":"CÃ´ng ty CP Äáº§u TÆ° PhÃ¡t Triá»ƒn BÄS T-Bella Land","checkins":0,"page":{"id":"1393427247426998","name":"CÃ´ng ty CP Äáº§u TÆ° PhÃ¡t Triá»ƒn BÄS T-Bella Land","link":"https://www.facebook.com/1393427247426998","about":"KÃ­ gá»­i - mua bÃ¡n nhÃ  Ä‘áº¥t Quáº­n 7, NhÃ  BÃ¨\nChuyÃªn dá»‹ch vá»¥ há»“ sÆ¡ nhÃ  Ä‘áº¥t uy tÃ­n táº¡i Quáº­n 7: hoÃ n cÃ´ng nhÃ  Ä‘áº¥t; xin phÃ©p xÃ¢y dá»±ng; há»£p thá»©c hÃ³a; há»£p thá»­a, tÃ¡ch thá»­a","location":{"city":"Ho Chi Minh City","latitude":10.70443,"longitude":106.7296},"phone":"0938479767"},"id":"1393427250760331"},{"name":"CÄƒn Há»™ Viva Plaza Quáº­n 7 # Trang ThÃ´ng Tin ChÃ­nh Thá»©c Chá»§ Äáº§u TÆ°","checkins":0,"website":"https://canhovivaplaza.vn/","page":{"id":"101988078107742","name":"CÄƒn Há»™ Viva Plaza Quáº­n 7 # Trang ThÃ´ng Tin ChÃ­nh Thá»©c Chá»§ Äáº§u TÆ°","link":"https://www.facebook.com/101988078107742","about":"Trang thÃ´ng tin chÃ­nh thá»©c tá»« chá»§ Ä‘áº§u tÆ° CÄƒn Há»™ Viva Plaza Quáº­n 7","location":{"city":"Ho Chi Minh City","latitude":10.702500331537,"longitude":106.73166414886,"street":"15B Ä‘Æ°á»ng Nguyá»…n LÆ°Æ¡ng Báº±ng Quáº­n 7"},"phone":"0977 570 006"},"id":"101988314774385"},{"name":"CÃ´ng ty TNHH Äáº§u tÆ° PhÃ¡t triá»ƒn Dá»‹ch vá»¥ Long Tiáº¿n","checkins":2,"page":{"id":"106055521103202","name":"CÃ´ng ty TNHH Äáº§u tÆ° PhÃ¡t triá»ƒn Dá»‹ch vá»¥ Long Tiáº¿n","link":"https://www.facebook.com/106055521103202","about":"Cung cáº¥p cÃ¡c dá»‹ch vá»¥ phá»¥c há»“i vÃ  Ä‘Ã¡nh bÃ³ng sÃ n Ä‘Ã¡, vá»‡ sinh cÃ´ng nghiá»‡p chuyÃªn dá»¥ng","location":{"city":"NhÃ  BÃ¨ District","latitude":10.69236,"longitude":106.74088,"street":"400/1/3A Huá»³nh Táº¥n PhÃ¡t, khu phá»‘ 7, thá»‹ tráº¥n NhÃ  BÃ¨"},"phone":"+84335359237"},"id":"106055674436520"},{"name":"CÃ´ng Ty TNHH Äáº§u TÆ° XÃ¢y Dá»±ng An Nháº­t Minh","checkins":0,"website":"http://annhatminh.com/","page":{"id":"443604209751519","name":"CÃ´ng Ty TNHH Äáº§u TÆ° XÃ¢y Dá»±ng An Nháº­t Minh","link":"https://www.facebook.com/443604209751519","about":"ChuyÃªn thi cÃ´ng xÃ¢y dá»±ng, thiáº¿t káº¿ hoÃ n thiá»‡n cÃ¡c dá»± Ã¡n nhÃ  phá»‘, biá»‡t thá»±...","location":{"city":"NhÃ  BÃ¨ District","latitude":10.693122858319,"longitude":106.73943042755,"street":"420/41/7/13 Huá»³nh Táº¥n PhÃ¡t, Khu phá»‘ 7, Thá»‹ Tráº¥n NhÃ  BÃ¨, Huyá»‡n NhÃ  BÃ¨, TP HCM"},"phone":"0975527520"},"id":"443604363084837"},{"name":"Chá»§ Äáº§u TÆ° HÆ°ng Lá»™c PhÃ¡t BÃ¡n Sáº£n Pháº©m","checkins":0,"website":"www.muaban-vincity.vn","page":{"id":"1847216772247128","name":"Chá»§ Äáº§u TÆ° HÆ°ng Lá»™c PhÃ¡t BÃ¡n Sáº£n Pháº©m","link":"https://www.facebook.com/1847216772247128","about":"Báº¡n muá»‘n Ä‘áº§u tÆ° trá»±c tiáº¿p tá»« chá»§ Ä‘áº§u tÆ° vá» nhÃ  phá»‘ vÃ  cÄƒn há»™. HÃ£y gá»i 0938 463 863","location":{"city":"Ho Chi Minh City","latitude":10.70478,"longitude":106.73419,"street":"80 Ä‘Æ°á»ng Pháº¡m Há»¯u Láº§u, P. PhÃº Má»¹, quáº­n 7."},"phone":"0938463863"},"id":"1847216775580461"},{"name":"Äáº§u tÆ° báº¥t Ä‘á»™ng sáº£n","checkins":0,"page":{"id":"352561918818705","name":"Äáº§u tÆ° báº¥t Ä‘á»™ng sáº£n","link":"https://www.facebook.com/352561918818705","location":{"city":"Ho Chi Minh City","latitude":10.6869334,"longitude":106.743599,"street":"2295 Huá»³nh Táº¥n PhÃ¡t NhÃ  BÃ¨"},"phone":"+84 90 230 70 77"},"id":"352562095485354"},{"name":"Há»™i Ä‘áº§u tÆ° báº¥t Ä‘á»™ng sáº£n","checkins":4,"page":{"id":"111285059588822","name":"Há»™i Ä‘áº§u tÆ° báº¥t Ä‘á»™ng sáº£n","link":"https://www.facebook.com/111285059588822","about":"River panaroma-cÄƒn há»™ 5 sao ven Ä‘Ã¡ng sá»‘ng","location":{"city":"Ho Chi Minh City","latitude":10.695568715565,"longitude":106.73985958099,"street":"huá»³nh táº¥n phÃ¡t quáº­n 7"},"phone":"0909198200"},"id":"111727259544602"},{"name":"CÃ´ng ty TNHH Äáº§u tÆ° PhÃ¡t triá»ƒn Dá»‹ch vá»¥ Long Tiáº¿n","checkins":2,"page":{"id":"106055521103202","name":"CÃ´ng ty TNHH Äáº§u tÆ° PhÃ¡t triá»ƒn Dá»‹ch vá»¥ Long Tiáº¿n","link":"https://www.facebook.com/106055521103202","about":"Cung cáº¥p cÃ¡c dá»‹ch vá»¥ phá»¥c há»“i vÃ  Ä‘Ã¡nh bÃ³ng sÃ n Ä‘Ã¡, vá»‡ sinh cÃ´ng nghiá»‡p chuyÃªn dá»¥ng","location":{"city":"NhÃ  BÃ¨ District","latitude":10.69236,"longitude":106.74088,"street":"400/1/3A Huá»³nh Táº¥n PhÃ¡t, khu phá»‘ 7, thá»‹ tráº¥n NhÃ  BÃ¨"},"phone":"+84335359237"},"id":"106055674436520"},{"name":"CÃ´ng Ty TNHH Äáº§u TÆ° XÃ¢y Dá»±ng An Nháº­t Minh","checkins":0,"website":"http://annhatminh.com/","page":{"id":"443604209751519","name":"CÃ´ng Ty TNHH Äáº§u TÆ° XÃ¢y Dá»±ng An Nháº­t Minh","link":"https://www.facebook.com/443604209751519","about":"ChuyÃªn thi cÃ´ng xÃ¢y dá»±ng, thiáº¿t káº¿ hoÃ n thiá»‡n cÃ¡c dá»± Ã¡n nhÃ  phá»‘, biá»‡t thá»±...","location":{"city":"NhÃ  BÃ¨ District","latitude":10.693122858319,"longitude":106.73943042755,"street":"420/41/7/13 Huá»³nh Táº¥n PhÃ¡t, Khu phá»‘ 7, Thá»‹ Tráº¥n NhÃ  BÃ¨, Huyá»‡n NhÃ  BÃ¨, TP HCM"},"phone":"0975527520"},"id":"443604363084837"},{"name":"CÃ´ng Ty Tnhh Äáº§u TÆ° Tmdv Sht","checkins":14,"website":"http://sht.com.vn","page":{"id":"298909750258107","name":"CÃ´ng Ty Tnhh Äáº§u TÆ° Tmdv Sht","link":"https://www.facebook.com/298909750258107","about":"CÃ”NG TY  TNHH Äáº¦U TÆ¯ THÆ¯Æ NG Máº I Dá»ŠCH Vá»¤ SHT\nTrá»¥ sá»Ÿ táº¡i : 706 LÃª VÄƒn LÆ°Æ¡ng - XÃ£ PhÆ°á»›c kiá»ƒn - Huyá»‡n NhÃ  BÃ¨.Tp.HCM\nTel : (08)378 15184 \nw: www.sht.com.vn","location":{"city":"NhÃ  BÃ¨ District","latitude":10.6833,"longitude":106.767,"street":"706 LÃª vÄƒn lÆ°Æ¡ng,phÆ°á»›c kiá»ƒn,nhÃ  bÃ¨"},"phone":"0949966769"},"id":"298911166924632"},{"name":"CÃ´ng Ty Cá»• Pháº§n Äáº§u TÆ° XÃ¢y Dá»±ng ThÃ¡i Viá»‡t","checkins":12,"page":{"id":"1515119015179527","name":"CÃ´ng Ty Cá»• Pháº§n Äáº§u TÆ° XÃ¢y Dá»±ng ThÃ¡i Viá»‡t","link":"https://www.facebook.com/1515119015179527","location":{"city":"NhÆ¡n Tráº¡ch","latitude":10.6936281,"longitude":106.8297317,"street":"HÆ°Æ¡ng Lá»™ 19"},"phone":"+84 61 3519 338"},"id":"1515119035179525"},{"name":"CÃ´ng Ty Cá»• Pháº§n Äáº§u TÆ° XÃ¢y Dá»±ng ThÃ¡i Viá»‡t","checkins":12,"page":{"id":"1515119015179527","name":"CÃ´ng Ty Cá»• Pháº§n Äáº§u TÆ° XÃ¢y Dá»±ng ThÃ¡i Viá»‡t","link":"https://www.facebook.com/1515119015179527","location":{"city":"NhÆ¡n Tráº¡ch","latitude":10.6936281,"longitude":106.8297317,"street":"HÆ°Æ¡ng Lá»™ 19"},"phone":"+84 61 3519 338"},"id":"1515119035179525"},{"name":"Äáº¥t ná»n cÃ³ sá»• kÃªnh Ä‘áº§u tÆ° an toÃ n nháº¥t","checkins":0,"page":{"id":"101671084739634","name":"Äáº¥t ná»n cÃ³ sá»• kÃªnh Ä‘áº§u tÆ° an toÃ n nháº¥t","link":"https://www.facebook.com/101671084739634","location":{"city":"BÃ¬nh ChÃ¡nh","latitude":10.6687,"longitude":106.56116,"street":"HOÃ€NG PHAN THÃI"},"phone":"0932812818"},"id":"101671238072952"},{"name":"Äáº§u cÃ¡ cÆ¡m khÃ´ ,Ä‘áº§u cÃ¡ cÆ¡m nghiá»n","checkins":0,"page":{"id":"101117144996967","name":"Äáº§u cÃ¡ cÆ¡m khÃ´ ,Ä‘áº§u cÃ¡ cÆ¡m nghiá»n","link":"https://www.facebook.com/101117144996967","location":{"city":"BÃ¬nh ChÃ¡nh","latitude":10.67923,"longitude":106.57655,"street":"Khu cÃ´ng nghiá»‡p lÃª minh xuÃ¢n ,huyá»‡n bÃ¬nh chÃ¡nh tp hcm"},"phone":"0989176263"},"id":"101117434996938"},{"name":"Äáº¥t  Äáº§u TÆ° GiÃ¡ Tá»‘t","checkins":0,"website":"https://datdautugiatot.com","page":{"id":"113529440054858","name":"Äáº¥t  Äáº§u TÆ° GiÃ¡ Tá»‘t","link":"https://www.facebook.com/113529440054858","location":{"city":"Ho Chi Minh City","latitude":10.67923,"longitude":106.57655,"street":"HUYá»†N BÃŒNH CHÃNH"},"phone":"0938542978"},"id":"113529703388165"},{"name":"TÆ° váº¥n mua bÃ¡n Ä‘áº§u tÆ° Ä‘áº¥t ná»n BienHoa Newcity","checkins":0,"page":{"id":"113002340118846","name":"TÆ° váº¥n mua bÃ¡n Ä‘áº§u tÆ° Ä‘áº¥t ná»n BienHoa Newcity","link":"https://www.facebook.com/113002340118846","location":{"city":"BÃ¬nh ChÃ¡nh","latitude":10.6667,"longitude":106.567,"street":"LÃ´ M4.44 KDC Äáº¡i PhÃºc Green Villas, 6B Pháº¡m HÃ¹ng, BÃ¬nh HÆ°ng, BÃ¬nh ChÃ¡nh"},"phone":"0908987781"},"id":"113002516785495"},{"name":"Äáº§u TÆ° PhÃ¡t Triá»ƒn CÃ´ng Nghá»‡ Quá»‘c Gia Adg - CN","checkins":0,"page":{"id":"1348495141937492","name":"Äáº§u TÆ° PhÃ¡t Triá»ƒn CÃ´ng Nghá»‡ Quá»‘c Gia Adg - CN","link":"https://www.facebook.com/1348495141937492","location":{"city":"BÃ¬nh ChÃ¡nh","latitude":10.66307,"longitude":106.56712,"street":"1A"},"phone":"+84 8 5429 8068"},"id":"1348495148604158"},{"name":"Äáº¥t Ná»n Äáº§u TÆ° ThÃ nh Phá»‘ Há»“ ChÃ­ Minh","checkins":0,"page":{"id":"291947168004431","name":"Äáº¥t Ná»n Äáº§u TÆ° ThÃ nh Phá»‘ Há»“ ChÃ­ Minh","link":"https://www.facebook.com/291947168004431","location":{"city":"Ho Chi Minh City","latitude":10.678826850175,"longitude":106.57699584961},"phone":"0901681807"},"id":"297685694097245"},{"name":"Äáº¥t ná»n cÃ³ sá»• kÃªnh Ä‘áº§u tÆ° an toÃ n nháº¥t","checkins":0,"page":{"id":"101671084739634","name":"Äáº¥t ná»n cÃ³ sá»• kÃªnh Ä‘áº§u tÆ° an toÃ n nháº¥t","link":"https://www.facebook.com/101671084739634","location":{"city":"BÃ¬nh ChÃ¡nh","latitude":10.6687,"longitude":106.56116,"street":"HOÃ€NG PHAN THÃI"},"phone":"0932812818"},"id":"101671238072952"},{"name":"CÃ´ng ty Cá»• pháº§n TÆ° váº¥n Äáº§u tÆ° TM XD DV Báº¥t Ä‘á»™ng sáº£n TÃ i Há»“ng Ngá»c","checkins":1,"page":{"id":"1481707081970713","name":"CÃ´ng ty Cá»• pháº§n TÆ° váº¥n Äáº§u tÆ° TM XD DV Báº¥t Ä‘á»™ng sáº£n TÃ i Há»“ng Ngá»c","link":"https://www.facebook.com/1481707081970713","about":"Äáº§u tÆ°, kháº£o sÃ¡t, tÆ° váº¥n thiáº¿t káº¿, tÆ° váº¥n giÃ¡m sÃ¡t, thi cÃ´ng xÃ¢y dá»±ng dÃ¢n dá»¥ng vÃ  cÃ´ng nghiá»‡p, kiá»ƒm Ä‘á»‹nh cháº¥t lÆ°á»£ng cÃ´ng trÃ¬nh, tháº©m tra thiáº¿t káº¿, ....","location":{"city":"BÃ¬nh ChÃ¡nh","latitude":10.6667,"longitude":106.567},"phone":"0979730509"},"id":"1481724798635608"},{"name":"Äáº¥t VÃ ng Äáº§u TÆ°","checkins":0,"page":{"id":"557191054464682","name":"Äáº¥t VÃ ng Äáº§u TÆ°","link":"https://www.facebook.com/557191054464682","about":"Kinh doanh mua bÃ¡n báº¥t Ä‘á»™ng sáº£n","location":{"city":"Ho Chi Minh City","latitude":10.66643,"longitude":106.57876,"street":"141 huá»³nh vÄƒn trÃ­ , bÃ¬nh chÃ¡nh"},"phone":"0907339720"},"id":"557191104464677"},{"name":"Äáº§u TÆ° Äá»‹a á»c Xuáº¥t Nháº­p Kháº©u-ThÆ°Æ¡ng Máº¡i ThÃ nh ThÃ¡i Thu","checkins":1,"page":{"id":"1175660735890498","name":"Äáº§u TÆ° Äá»‹a á»c Xuáº¥t Nháº­p Kháº©u-ThÆ°Æ¡ng Máº¡i ThÃ nh ThÃ¡i Thu","link":"https://www.facebook.com/1175660735890498","location":{"city":"Ho Chi Minh City","latitude":10.67105,"longitude":106.58476},"phone":"+84 8 3760 7434"},"id":"1175660745890497"},{"name":"Tráº¡m Kiá»ƒm Dá»‹ch Äá»™ng Váº­t Äáº§u Má»‘i An Láº¡c","checkins":2,"page":{"id":"461446737563590","name":"Tráº¡m Kiá»ƒm Dá»‹ch Äá»™ng Váº­t Äáº§u Má»‘i An Láº¡c","link":"https://www.facebook.com/461446737563590","location":{"city":"Ho Chi Minh City","latitude":10.67656,"longitude":106.58338,"street":"1A"},"phone":"8-37606196"},"id":"461446744230256"},{"name":"Chi NhÃ¡nh Äáº§u TÆ° XÃ¢y Dá»±ng-ThÆ°Æ¡ng Máº¡i-Dá»‹ch Vá»¥ VÃ  Mua BÃ¡n Xe Ã” TÃ´ Hiá»‡p Äá»©c","checkins":0,"page":{"id":"297143200898177","name":"Chi NhÃ¡nh Äáº§u TÆ° XÃ¢y Dá»±ng-ThÆ°Æ¡ng Máº¡i-Dá»‹ch Vá»¥ VÃ  Mua BÃ¡n Xe Ã” TÃ´ Hiá»‡p Äá»©c","link":"https://www.facebook.com/297143200898177","location":{"city":"Ho Chi Minh City","latitude":10.67871,"longitude":106.58602,"street":"1A"},"phone":"+84 91 619 01 01"},"id":"297144537564710"},{"name":"Chi NhÃ¡nh Äáº§u TÆ° XÃ¢y Dá»±ng-ThÆ°Æ¡ng Máº¡i-Dá»‹ch Vá»¥ VÃ  Mua BÃ¡n Xe Ã” TÃ´ Hiá»‡p Äá»©c","checkins":0,"page":{"id":"231768787421223","name":"Chi NhÃ¡nh Äáº§u TÆ° XÃ¢y Dá»±ng-ThÆ°Æ¡ng Máº¡i-Dá»‹ch Vá»¥ VÃ  Mua BÃ¡n Xe Ã” TÃ´ Hiá»‡p Äá»©c","link":"https://www.facebook.com/231768787421223","location":{"city":"Ho Chi Minh City","latitude":10.67871,"longitude":106.58602,"street":"1A"},"phone":"+84 91 619 01 01"},"id":"231769097421192"},{"name":"Chi NhÃ¡nh Äáº§u TÆ° XÃ¢y Dá»±ng-ThÆ°Æ¡ng Máº¡i-Dá»‹ch Vá»¥ VÃ  Mua BÃ¡n Xe Ã” TÃ´ Hiá»‡p Äá»©c","checkins":1,"page":{"id":"168057327166998","name":"Chi NhÃ¡nh Äáº§u TÆ° XÃ¢y Dá»±ng-ThÆ°Æ¡ng Máº¡i-Dá»‹ch Vá»¥ VÃ  Mua BÃ¡n Xe Ã” TÃ´ Hiá»‡p Äá»©c","link":"https://www.facebook.com/168057327166998","location":{"city":"Ho Chi Minh City","latitude":10.67871,"longitude":106.58602,"street":"1A"},"phone":"+84 91 619 01 01"},"id":"168057513833646"},{"name":"CÃ´ng Ty Äáº§u TÆ° Khai KhoÃ¡ng ÄÃ¡ Pailin Viá»‡t Nam","checkins":0,"page":{"id":"108720967290431","name":"CÃ´ng Ty Äáº§u TÆ° Khai KhoÃ¡ng ÄÃ¡ Pailin Viá»‡t Nam","link":"https://www.facebook.com/108720967290431","about":"Khai thÃ¡c cháº¿ tÃ¡c Ä‘Ã¡ tá»± nhiÃªn, bÃ¡n Ä‘Ã¡ khá»‘i, Ä‘Ã¡ slab, cá»™t, phÃ¹ Ä‘iÃªu, con tiá»‡n ...","location":{"city":"Ho Chi Minh City","latitude":10.678519749338,"longitude":106.58555252597,"street":"11/11 Quá»‘c Lá»™ 1A, BÃ¬nh ChÃ¡nh"},"phone":"+84886007247"},"id":"136862281142966"},{"name":"Äáº§u cÃ¡ cÆ¡m khÃ´ ,Ä‘áº§u cÃ¡ cÆ¡m nghiá»n","checkins":0,"page":{"id":"101117144996967","name":"Äáº§u cÃ¡ cÆ¡m khÃ´ ,Ä‘áº§u cÃ¡ cÆ¡m nghiá»n","link":"https://www.facebook.com/101117144996967","location":{"city":"BÃ¬nh ChÃ¡nh","latitude":10.67923,"longitude":106.57655,"street":"Khu cÃ´ng nghiá»‡p lÃª minh xuÃ¢n ,huyá»‡n bÃ¬nh chÃ¡nh tp hcm"},"phone":"0989176263"},"id":"101117434996938"},{"name":"Äáº¥t  Äáº§u TÆ° GiÃ¡ Tá»‘t","checkins":0,"website":"https://datdautugiatot.com","page":{"id":"113529440054858","name":"Äáº¥t  Äáº§u TÆ° GiÃ¡ Tá»‘t","link":"https://www.facebook.com/113529440054858","location":{"city":"Ho Chi Minh City","latitude":10.67923,"longitude":106.57655,"street":"HUYá»†N BÃŒNH CHÃNH"},"phone":"0938542978"},"id":"113529703388165"},{"name":"Äáº¥t Ná»n Äáº§u TÆ° ThÃ nh Phá»‘ Há»“ ChÃ­ Minh","checkins":0,"page":{"id":"291947168004431","name":"Äáº¥t Ná»n Äáº§u TÆ° ThÃ nh Phá»‘ Há»“ ChÃ­ Minh","link":"https://www.facebook.com/291947168004431","location":{"city":"Ho Chi Minh City","latitude":10.678826850175,"longitude":106.57699584961},"phone":"0901681807"},"id":"297685694097245"},{"name":"Äáº¥t VÃ ng Äáº§u TÆ°","checkins":0,"page":{"id":"557191054464682","name":"Äáº¥t VÃ ng Äáº§u TÆ°","link":"https://www.facebook.com/557191054464682","about":"Kinh doanh mua bÃ¡n báº¥t Ä‘á»™ng sáº£n","location":{"city":"Ho Chi Minh City","latitude":10.66643,"longitude":106.57876,"street":"141 huá»³nh vÄƒn trÃ­ , bÃ¬nh chÃ¡nh"},"phone":"0907339720"},"id":"557191104464677"},{"name":"West Gate BÃ¬nh ChÃ¡nh - Chá»§ Ä‘áº§u tÆ° An Gia Group","checkins":0,"page":{"id":"104326837822113","name":"West Gate BÃ¬nh ChÃ¡nh - Chá»§ Ä‘áº§u tÆ° An Gia Group","link":"https://www.facebook.com/104326837822113","about":"CÄƒn há»™ Westgate Chá»§ Ä‘áº§u tÆ° An Gia","location":{"city":"BÃ¬nh ChÃ¡nh","latitude":10.6867699,"longitude":106.58548,"street":"349 ÄÆ°á»ng TÃ¢n TÃºc, TT. TÃ¢n TÃºc, BÃ¬nh ChÃ¡nh, Há»“ ChÃ­ Minh"},"phone":"0931387877"},"id":"104327034488760"},{"name":"TÆ° Váº¥n Äáº§u TÆ° XÃ¢y Dá»±ng ThÆ°Æ¡ng Máº¡i Mekong","checkins":1,"page":{"id":"129725394265798","name":"TÆ° Váº¥n Äáº§u TÆ° XÃ¢y Dá»±ng ThÆ°Æ¡ng Máº¡i Mekong","link":"https://www.facebook.com/129725394265798","location":{"city":"Ho Chi Minh City","latitude":10.68406,"longitude":106.59734},"phone":"+84983077727"},"id":"129725400932464"},{"name":"Chá»§ Äáº§u TÆ° NhÃ  Äáº¥t HÆ°ng Long BÃ¬nh ChÃ¡nh","checkins":0,"page":{"id":"100700058358712","name":"Chá»§ Äáº§u TÆ° NhÃ  Äáº¥t HÆ°ng Long BÃ¬nh ChÃ¡nh","link":"https://www.facebook.com/100700058358712","about":"mua bÃ¡n sá»‰ láº»","location":{"city":"Ho Chi Minh City","latitude":10.66823,"longitude":106.61266,"street":"40B/27D An phÃº TÃ¢y-hÆ°ng Long, BÃ¬nh ChÃ¡nh, Tp HCM"},"phone":"0795842377"},"id":"100700195025365"},{"name":"ChuyÃªn Cung Cáº¥p CÃ¡c Loáº¡i KhÃ´ Ngon Cháº¥t LÆ°á»£ng HÃ ng Äáº§u Tp.HCM","checkins":0,"page":{"id":"481778915700652","name":"ChuyÃªn Cung Cáº¥p CÃ¡c Loáº¡i KhÃ´ Ngon Cháº¥t LÆ°á»£ng HÃ ng Äáº§u Tp.HCM","link":"https://www.facebook.com/481778915700652","about":"ChuyÃªn cung cáº¥p sá»‰ vÃ  láº» cÃ¡c loáº¡i khÃ´ ngon cháº¥t lÆ°á»£ng hÃ ng Ä‘áº§u Tp. HCM.\nQuÃ½ khÃ¡ch hÃ ng cÃ³ nhu cáº§u liÃªn há»‡ 0789408607.\n","location":{"city":"Ho Chi Minh City","latitude":10.68131499436,"longitude":106.60699367523,"street":"HCM, HCM"},"phone":"0789408607"},"id":"481779092367301"},{"name":"Chá»§ Äáº§u TÆ° NhÃ  Äáº¥t HÆ°ng Long BÃ¬nh ChÃ¡nh","checkins":0,"page":{"id":"100700058358712","name":"Chá»§ Äáº§u TÆ° NhÃ  Äáº¥t HÆ°ng Long BÃ¬nh ChÃ¡nh","link":"https://www.facebook.com/100700058358712","about":"mua bÃ¡n sá»‰ láº»","location":{"city":"Ho Chi Minh City","latitude":10.66823,"longitude":106.61266,"street":"40B/27D An phÃº TÃ¢y-hÆ°ng Long, BÃ¬nh ChÃ¡nh, Tp HCM"},"phone":"0795842377"},"id":"100700195025365"},{"name":"Äáº§u TÆ°-ThÆ°Æ¡ng Máº¡i-Dá»‹ch Vá»¥-CÆ¡ KhÃ­-Quáº£ng CÃ¡o Táº¥n Vinh","checkins":1,"page":{"id":"1866432596977903","name":"Äáº§u TÆ°-ThÆ°Æ¡ng Máº¡i-Dá»‹ch Vá»¥-CÆ¡ KhÃ­-Quáº£ng CÃ¡o Táº¥n Vinh","link":"https://www.facebook.com/1866432596977903","location":{"city":"Ho Chi Minh City","latitude":10.67078,"longitude":106.65098,"street":"50"},"phone":"+84 93 609 21 71"},"id":"1866432603644569"},{"name":"Äáº§u TÆ°-ThÆ°Æ¡ng Máº¡i-Dá»‹ch Vá»¥-CÆ¡ KhÃ­-Quáº£ng CÃ¡o Táº¥n Vinh","checkins":0,"page":{"id":"1896692343879060","name":"Äáº§u TÆ°-ThÆ°Æ¡ng Máº¡i-Dá»‹ch Vá»¥-CÆ¡ KhÃ­-Quáº£ng CÃ¡o Táº¥n Vinh","link":"https://www.facebook.com/1896692343879060","location":{"city":"Ho Chi Minh City","latitude":10.67076,"longitude":106.65023,"street":"QUá»C Lá»˜ 50"},"phone":"+84936092171"},"id":"1896692360545725"},{"name":"Äáº§u TÆ°-ThÆ°Æ¡ng Máº¡i-Dá»‹ch Vá»¥-CÆ¡ KhÃ­-Quáº£ng CÃ¡o Táº¥n Vinh","checkins":1,"page":{"id":"1866432596977903","name":"Äáº§u TÆ°-ThÆ°Æ¡ng Máº¡i-Dá»‹ch Vá»¥-CÆ¡ KhÃ­-Quáº£ng CÃ¡o Táº¥n Vinh","link":"https://www.facebook.com/1866432596977903","location":{"city":"Ho Chi Minh City","latitude":10.67078,"longitude":106.65098,"street":"50"},"phone":"+84 93 609 21 71"},"id":"1866432603644569"},{"name":"Äáº§u TÆ°-ThÆ°Æ¡ng Máº¡i-Dá»‹ch Vá»¥-CÆ¡ KhÃ­-Quáº£ng CÃ¡o Táº¥n Vinh","checkins":0,"page":{"id":"1896692343879060","name":"Äáº§u TÆ°-ThÆ°Æ¡ng Máº¡i-Dá»‹ch Vá»¥-CÆ¡ KhÃ­-Quáº£ng CÃ¡o Táº¥n Vinh","link":"https://www.facebook.com/1896692343879060","location":{"city":"Ho Chi Minh City","latitude":10.67076,"longitude":106.65023,"street":"QUá»C Lá»˜ 50"},"phone":"+84936092171"},"id":"1896692360545725"},{"name":"Äáº§u TÆ° XuÃ¢n Vinh","checkins":5,"page":{"id":"1880643468849644","name":"Äáº§u TÆ° XuÃ¢n Vinh","link":"https://www.facebook.com/1880643468849644","location":{"city":"Ho Chi Minh City","latitude":10.68538,"longitude":106.65018,"street":"ÄÆ¯á»œNG Äa PhÆ°á»›c"},"phone":"+84 8 3957 5698"},"id":"1880643478849643"},{"name":"Radio Cassetle Äáº§u bÄƒng Cá»‘i AKAI, BÄƒng ÄÄ©a Nhá»±a xÆ°a","checkins":0,"page":{"id":"105068340858925","name":"Radio Cassetle Äáº§u bÄƒng Cá»‘i AKAI, BÄƒng ÄÄ©a Nhá»±a xÆ°a","link":"https://www.facebook.com/105068340858925","about":"SÆ°u táº§m MÃ¡y hÃ¡t xÆ°a :\n+Radio Cassetle \n+Äáº§u BÄƒng Cá»‘i\n+MÃ¡y hÃ¡t Ä‘Ä©a Than\n+Äáº§u CD \n+VÃ  CÃ¡c loáº¡i BÄƒng ÄÄ©a XÆ°a\n\n","location":{"city":"NhÃ  BÃ¨ District","latitude":10.671986984436,"longitude":106.69915705919,"street":"1697 LÃª VÄƒn LÆ°Æ¡ng, NhÆ¡n Äá»©c, NhÃ  BÃ¨ Tp Há»“ ChÃ­ Minh"},"phone":"+84982948499"},"id":"105068487525577"},{"name":"CÃ´ng Ty Äáº§u TÆ° Äá»‹a á»c ThÃ¡i Nguyá»…n","checkins":0,"page":{"id":"103943744438016","name":"CÃ´ng Ty Äáº§u TÆ° Äá»‹a á»c ThÃ¡i Nguyá»…n","link":"https://www.facebook.com/103943744438016","about":"Mua bÃ¡n nhÃ  Ä‘áº¥t ","location":{"city":"NhÃ  BÃ¨ District","latitude":10.68076,"longitude":106.69998,"street":"LÃŠ VÄ‚N LÆ¯Æ NG NHÃ€ BÃˆ"},"phone":"0909304336"},"id":"103943901104667"},{"name":"Báº¥t Äá»™ng Sáº£n Äáº§u TÆ°","checkins":0,"page":{"id":"286515988906335","name":"Báº¥t Äá»™ng Sáº£n Äáº§u TÆ°","link":"https://www.facebook.com/286515988906335","about":"ğŸ¦ChuyÃªn NhÃ  XÆ°á»Ÿng - Äáº¥t Dá»± Ãn - Building - Hotel - Resort - Biá»‡t Thá»±ğŸ¦","location":{"city":"Ho Chi Minh City","latitude":10.67175,"longitude":106.69781,"street":"1017 lÃª vÄƒn  lÆ°Æ¡ng, xÃ£ phÆ°á»›c kiá»ƒn, huyá»‡n nhÃ  bÃ¨"},"phone":"+84784666639"},"id":"286516145572986"},{"name":"La Partenza - Tiá»ƒu Pari giá»¯a lÃ²ng SÃ i GÃ²n - Page Chá»§ Äáº§u TÆ°","checkins":0,"page":{"id":"104674297943642","name":"La Partenza - Tiá»ƒu Pari giá»¯a lÃ²ng SÃ i GÃ²n - Page Chá»§ Äáº§u TÆ°","link":"https://www.facebook.com/104674297943642","location":{"city":"NhÃ  BÃ¨ District","latitude":10.67499,"longitude":106.69842,"street":"CÄƒn cá»™ cao cáº¥p LÃª VÄƒn LÆ°Æ¡ng, NhÃ  BÃ¨, Há»“ ChÃ­ Minh"},"phone":"0909916179"},"id":"104674491276956"},{"name":"CÃ´ng ty Äáº§u tÆ° Báº¥t Ä‘á»™ng sáº£n Gia Äá»‹nh","checkins":3,"website":"http://giadinhland.com.vn/","page":{"id":"743484572513545","name":"CÃ´ng ty Äáº§u tÆ° Báº¥t Ä‘á»™ng sáº£n Gia Äá»‹nh","link":"https://www.facebook.com/743484572513545","location":{"city":"Ho Chi Minh City","latitude":10.677357920806,"longitude":106.70467470728,"street":"867 Nguyá»…n bÃ¬nh , áº¥p 2, xÃ£ NhÆ¡n Äá»©c . Huyá»‡n nhÃ  bÃ¨"},"phone":"0917973978"},"id":"743966342465368"},{"name":"CÄƒn há»™ La Partenza - Khá»Ÿi Ä‘áº§u hÃ nh trÃ¬nh háº¡nh phÃºc","checkins":35,"page":{"id":"100306041423572","name":"CÄƒn há»™ La Partenza - Khá»Ÿi Ä‘áº§u hÃ nh trÃ¬nh háº¡nh phÃºc","link":"https://www.facebook.com/100306041423572","about":"- Cáº­p nháº­p thÃ´ng tin vÃ  tiáº¿n Ä‘á»™ dá»± Ã¡n La Partenza\n- Há»— trá»£ tÆ° váº¥n vÃ  giáº£i Ä‘Ã¡p tháº¯c máº¯c\n- TÆ° váº¥n lá»±a chá»n sáº£n pháº©m phÃ¹ há»£p\n- Nháº­n Ä‘Äƒng kÃ½ tham quan dá»± Ã¡n.\n\nHOTLINE: 093.8581.063","location":{"city":"Ho Chi Minh City","latitude":10.68076,"longitude":106.69998,"street":"LÃª VÄƒn LÆ°Æ¡ng, NhÃ  BÃ¨"},"phone":"+84938581063"},"id":"100306201423556"},{"name":"La Partenza- Sá»± Khá»Ÿi Äáº§u","checkins":0,"page":{"id":"104424237675990","name":"La Partenza- Sá»± Khá»Ÿi Äáº§u","link":"https://www.facebook.com/104424237675990","about":"TÃªn dá»± Ã¡n:  LA  PATENZA\nChá»§ Ä‘áº§u tÆ° :CÃ´ng ty CP BÄS Kháº£i Minh Land\nChá»§ Ä‘áº§u tÆ° vÃ  phÃ¡t triá»ƒn dá»± Ã¡n:CÃ´ng ty CP BÄS Kháº£i Minh Land\n","location":{"city":"Ho Chi Minh City","latitude":10.68076,"longitude":106.69998,"street":"LÃª VÄƒn LÆ°Æ¡ng, NhÃ  BÃ¨, TpHCM"},"phone":"+84911995900"},"id":"104424437675970"},{"name":"CÄƒn há»™ La Partenza NhÃ  BÃ¨ - Fanpage ChÃ­nh thá»©c cá»§a Chá»§ Ä‘áº§u tÆ°","checkins":0,"page":{"id":"112287296866581","name":"CÄƒn há»™ La Partenza NhÃ  BÃ¨ - Fanpage ChÃ­nh thá»©c cá»§a Chá»§ Ä‘áº§u tÆ°","link":"https://www.facebook.com/112287296866581","about":"Chung cÆ° La Partenza NhÃ  BÃ¨. Hotline: 0898.698.555","location":{"city":"Ho Chi Minh City","latitude":10.68076,"longitude":106.69998,"street":"LÃª VÄƒn LÆ°Æ¡ng, NhÆ¡n Äá»©c,  NhÃ  BÃ¨"},"phone":"+84898698555"},"id":"112287503533227"},{"name":"CÄƒn Há»™ La Partenza - ThÃ´ng Tin ChÃ­nh Thá»©c Chá»§ Äáº§u TÆ°","checkins":2,"website":"http://lapatenza.com/","page":{"id":"106369927471343","name":"CÄƒn Há»™ La Partenza - ThÃ´ng Tin ChÃ­nh Thá»©c Chá»§ Äáº§u TÆ°","link":"https://www.facebook.com/106369927471343","about":"Dá»± Ãn La Partenza NhÃ  BÃ¨, Ä‘Æ°á»£c xem lÃ  cÄƒn há»™ chung cÆ° Ä‘áº¹p báº­c nháº¥t Ä‘áº¿n thá»i Ä‘iá»ƒm hiá»‡n táº¡i","location":{"city":"Ho Chi Minh City","latitude":10.66369,"longitude":106.6938,"street":"1805 LÃª VÄƒn LÆ°Æ¡ng, NhÆ¡n Äá»©c, NhÃ  BÃ¨"},"phone":"+84909917898"},"id":"106370127471323"},{"name":"CÃ´ng ty Äáº§u tÆ° Báº¥t Ä‘á»™ng sáº£n Gia Äá»‹nh","checkins":3,"website":"http://giadinhland.com.vn/","page":{"id":"743484572513545","name":"CÃ´ng ty Äáº§u tÆ° Báº¥t Ä‘á»™ng sáº£n Gia Äá»‹nh","link":"https://www.facebook.com/743484572513545","location":{"city":"Ho Chi Minh City","latitude":10.677357920806,"longitude":106.70467470728,"street":"867 Nguyá»…n bÃ¬nh , áº¥p 2, xÃ£ NhÆ¡n Äá»©c . Huyá»‡n nhÃ  bÃ¨"},"phone":"0917973978"},"id":"743966342465368"},{"name":"CÃ´ng Ty Äáº§u TÆ° Äá»‹a á»c ThÃ¡i Nguyá»…n","checkins":0,"page":{"id":"103943744438016","name":"CÃ´ng Ty Äáº§u TÆ° Äá»‹a á»c ThÃ¡i Nguyá»…n","link":"https://www.facebook.com/103943744438016","about":"Mua bÃ¡n nhÃ  Ä‘áº¥t ","location":{"city":"NhÃ  BÃ¨ District","latitude":10.68076,"longitude":106.69998,"street":"LÃŠ VÄ‚N LÆ¯Æ NG NHÃ€ BÃˆ"},"phone":"0909304336"},"id":"103943901104667"},{"name":"CÄƒn há»™ La Partenza - Khá»Ÿi Ä‘áº§u hÃ nh trÃ¬nh háº¡nh phÃºc","checkins":35,"page":{"id":"100306041423572","name":"CÄƒn há»™ La Partenza - Khá»Ÿi Ä‘áº§u hÃ nh trÃ¬nh háº¡nh phÃºc","link":"https://www.facebook.com/100306041423572","about":"- Cáº­p nháº­p thÃ´ng tin vÃ  tiáº¿n Ä‘á»™ dá»± Ã¡n La Partenza\n- Há»— trá»£ tÆ° váº¥n vÃ  giáº£i Ä‘Ã¡p tháº¯c máº¯c\n- TÆ° váº¥n lá»±a chá»n sáº£n pháº©m phÃ¹ há»£p\n- Nháº­n Ä‘Äƒng kÃ½ tham quan dá»± Ã¡n.\n\nHOTLINE: 093.8581.063","location":{"city":"Ho Chi Minh City","latitude":10.68076,"longitude":106.69998,"street":"LÃª VÄƒn LÆ°Æ¡ng, NhÃ  BÃ¨"},"phone":"+84938581063"},"id":"100306201423556"},{"name":"Radio Cassetle Äáº§u bÄƒng Cá»‘i AKAI, BÄƒng ÄÄ©a Nhá»±a xÆ°a","checkins":0,"page":{"id":"105068340858925","name":"Radio Cassetle Äáº§u bÄƒng Cá»‘i AKAI, BÄƒng ÄÄ©a Nhá»±a xÆ°a","link":"https://www.facebook.com/105068340858925","about":"SÆ°u táº§m MÃ¡y hÃ¡t xÆ°a :\n+Radio Cassetle \n+Äáº§u BÄƒng Cá»‘i\n+MÃ¡y hÃ¡t Ä‘Ä©a Than\n+Äáº§u CD \n+VÃ  CÃ¡c loáº¡i BÄƒng ÄÄ©a XÆ°a\n\n","location":{"city":"NhÃ  BÃ¨ District","latitude":10.671986984436,"longitude":106.69915705919,"street":"1697 LÃª VÄƒn LÆ°Æ¡ng, NhÆ¡n Äá»©c, NhÃ  BÃ¨ Tp Há»“ ChÃ­ Minh"},"phone":"+84982948499"},"id":"105068487525577"},{"name":"La Partenza- Sá»± Khá»Ÿi Äáº§u","checkins":0,"page":{"id":"104424237675990","name":"La Partenza- Sá»± Khá»Ÿi Äáº§u","link":"https://www.facebook.com/104424237675990","about":"TÃªn dá»± Ã¡n:  LA  PATENZA\nChá»§ Ä‘áº§u tÆ° :CÃ´ng ty CP BÄS Kháº£i Minh Land\nChá»§ Ä‘áº§u tÆ° vÃ  phÃ¡t triá»ƒn dá»± Ã¡n:CÃ´ng ty CP BÄS Kháº£i Minh Land\n","location":{"city":"Ho Chi Minh City","latitude":10.68076,"longitude":106.69998,"street":"LÃª VÄƒn LÆ°Æ¡ng, NhÃ  BÃ¨, TpHCM"},"phone":"+84911995900"},"id":"104424437675970"},{"name":"CÃ´ng Ty Tnhh Äáº§u TÆ° TÃ i Sáº£n VÃ ng","checkins":0,"website":"http://taisanvang.com","page":{"id":"1626818694238984","name":"CÃ´ng Ty Tnhh Äáº§u TÆ° TÃ i Sáº£n VÃ ng","link":"https://www.facebook.com/1626818694238984","about":"Thá»±c pháº©m sá»©c khá»e","location":{"city":"Ho Chi Minh City","latitude":10.6809101,"longitude":106.7215805,"street":"I12 ÄÆ°á»ng 11, Khu DÃ¢n CÆ° PhÆ°á»›c Kiá»ƒng, Huyá»‡n NhÃ  BÃ¨"},"phone":"0946114192"},"id":"1626818770905643"},{"name":"NhÃ  Äáº¥t An CÆ° - Äáº§u TÆ°","checkins":0,"website":"http://quan7-sunshinecitysaigon.com","page":{"id":"217179411955705","name":"NhÃ  Äáº¥t An CÆ° - Äáº§u TÆ°","link":"https://www.facebook.com/217179411955705","location":{"city":"Ho Chi Minh City","latitude":10.6713513,"longitude":106.7227387,"street":"31 Biá»‡t thá»± NgÃ¢n Long, PhÆ°á»›c Kiá»ƒn, Huyá»‡n NhÃ  BÃ¨, Tp.HCM"},"phone":"0938590836"},"id":"245016475838665"},{"name":"La Partenza - Tiá»ƒu Pari giá»¯a lÃ²ng SÃ i GÃ²n - Page Chá»§ Äáº§u TÆ°","checkins":0,"page":{"id":"104674297943642","name":"La Partenza - Tiá»ƒu Pari giá»¯a lÃ²ng SÃ i GÃ²n - Page Chá»§ Äáº§u TÆ°","link":"https://www.facebook.com/104674297943642","location":{"city":"NhÃ  BÃ¨ District","latitude":10.67499,"longitude":106.69842,"street":"CÄƒn cá»™ cao cáº¥p LÃª VÄƒn LÆ°Æ¡ng, NhÃ  BÃ¨, Há»“ ChÃ­ Minh"},"phone":"0909916179"},"id":"104674491276956"},{"name":"CÄƒn há»™ La Partenza NhÃ  BÃ¨ - Fanpage ChÃ­nh thá»©c cá»§a Chá»§ Ä‘áº§u tÆ°","checkins":0,"page":{"id":"112287296866581","name":"CÄƒn há»™ La Partenza NhÃ  BÃ¨ - Fanpage ChÃ­nh thá»©c cá»§a Chá»§ Ä‘áº§u tÆ°","link":"https://www.facebook.com/112287296866581","about":"Chung cÆ° La Partenza NhÃ  BÃ¨. Hotline: 0898.698.555","location":{"city":"Ho Chi Minh City","latitude":10.68076,"longitude":106.69998,"street":"LÃª VÄƒn LÆ°Æ¡ng, NhÆ¡n Äá»©c,  NhÃ  BÃ¨"},"phone":"+84898698555"},"id":"112287503533227"},{"name":"Äáº§u TÆ° Báº¥t Äá»™ng Sáº£n NHÃ€ BÃˆ","checkins":1,"website":"http://www.nhabeland.vn","page":{"id":"1454154284885955","name":"Äáº§u TÆ° Báº¥t Äá»™ng Sáº£n NHÃ€ BÃˆ","link":"https://www.facebook.com/1454154284885955","about":"NGÃ”I NHÃ€ Cá»¦A Æ¯á»šC MÆ ","location":{"city":"Ho Chi Minh City","latitude":10.66624,"longitude":106.72526,"street":"59 Nguyá»…n VÄƒn Táº¡o. áº¤p 3. XÃ£ Long Thá»›i. Huyá»‡n NhÃ  BÃ¨"},"phone":"0907088368"},"id":"1469470260021024"},{"name":"Äiá»u Trá»‹ Má»¥n Báº±ng á»ng Tre THÃ™Y TRANG","checkins":3224,"page":{"id":"1773975136158106","name":"Äiá»u Trá»‹ Má»¥n Báº±ng á»ng Tre THÃ™Y TRANG","link":"https://www.facebook.com/1773975136158106","about":"CHUYÃŠN : -ÄIá»€U TRá»Š Má»¤N Báº°NG HÃšT á»NG TRE - CHÄ‚M SÃ“C DA TOÃ€N DIá»†N Báº°NG CÃ”NG NGHá»† CAO - PHUN XÃ‚M MÃ€Y, MÃ”I - Sá»¬ Dá»¤NG, BÃN Sá»ˆ & Láºº Má»¶ PHáº¨M HÃ€N QUá»C CHÃNH HÃƒNG.","location":{"city":"Ho Chi Minh City","latitude":10.667419080885,"longitude":106.72417402267,"street":"58/28 Nguyá»…n VÄƒn Táº¡o, áº¤p 3, XÃ£  Long Thá»›i, Huyá»‡n  NhÃ  BÃ¨ (Ngay vÃ²ng xoay-Äáº§u Ä‘Æ°á»ng Nguyá»…n VÄƒn Táº¡o)"},"phone":"+84853550880"},"id":"1773975179491435"},{"name":"NhÃ  Äáº¥t An CÆ° - Äáº§u TÆ°","checkins":0,"website":"http://quan7-sunshinecitysaigon.com","page":{"id":"217179411955705","name":"NhÃ  Äáº¥t An CÆ° - Äáº§u TÆ°","link":"https://www.facebook.com/217179411955705","location":{"city":"Ho Chi Minh City","latitude":10.6713513,"longitude":106.7227387,"street":"31 Biá»‡t thá»± NgÃ¢n Long, PhÆ°á»›c Kiá»ƒn, Huyá»‡n NhÃ  BÃ¨, Tp.HCM"},"phone":"0938590836"},"id":"245016475838665"},{"name":"CÃ´ng Ty Tnhh Äáº§u TÆ° TÃ i Sáº£n VÃ ng","checkins":0,"website":"http://taisanvang.com","page":{"id":"1626818694238984","name":"CÃ´ng Ty Tnhh Äáº§u TÆ° TÃ i Sáº£n VÃ ng","link":"https://www.facebook.com/1626818694238984","about":"Thá»±c pháº©m sá»©c khá»e","location":{"city":"Ho Chi Minh City","latitude":10.6809101,"longitude":106.7215805,"street":"I12 ÄÆ°á»ng 11, Khu DÃ¢n CÆ° PhÆ°á»›c Kiá»ƒng, Huyá»‡n NhÃ  BÃ¨"},"phone":"0946114192"},"id":"1626818770905643"},{"name":"Äáº§u tÆ° báº¥t Ä‘á»™ng sáº£n","checkins":0,"page":{"id":"352561918818705","name":"Äáº§u tÆ° báº¥t Ä‘á»™ng sáº£n","link":"https://www.facebook.com/352561918818705","location":{"city":"Ho Chi Minh City","latitude":10.6869334,"longitude":106.743599,"street":"2295 Huá»³nh Táº¥n PhÃ¡t NhÃ  BÃ¨"},"phone":"+84 90 230 70 77"},"id":"352562095485354"},{"name":"CÃ´ng Ty Äáº§u TÆ° XÃ¢y Dá»±ng CÆ¡ KhÃ­ TÃ¢n TrÆ°á»ng PhÃ¡t","checkins":0,"page":{"id":"1264269873678049","name":"CÃ´ng Ty Äáº§u TÆ° XÃ¢y Dá»±ng CÆ¡ KhÃ­ TÃ¢n TrÆ°á»ng PhÃ¡t","link":"https://www.facebook.com/1264269873678049","location":{"city":"Ho Chi Minh City","latitude":10.6750985,"longitude":106.7622345,"street":"2451 HUá»²NH Táº¤N PHÃT XÃƒ PHÃš XUÃ‚N HUYá»†N NHÃ€ BÃˆ, TP HCM"},"phone":"0902745222"},"id":"1264269947011375"},{"name":"Äáº§u tÆ° phÃ¡t triá»ƒn nhÃ  Ä‘áº¥t PhÃº Má»¹","checkins":0,"page":{"id":"109282980882565","name":"Äáº§u tÆ° phÃ¡t triá»ƒn nhÃ  Ä‘áº¥t PhÃº Má»¹","link":"https://www.facebook.com/109282980882565","location":{"city":"Binh Thanh","latitude":10.66564,"longitude":106.77554,"street":"bÃ¬nh tháº¡nh"},"phone":"0708146229"},"id":"109283880882475"},{"name":"CÃ´ng Ty Tnhh Äáº§u TÆ° Tmdv Sht","checkins":14,"website":"http://sht.com.vn","page":{"id":"298909750258107","name":"CÃ´ng Ty Tnhh Äáº§u TÆ° Tmdv Sht","link":"https://www.facebook.com/298909750258107","about":"CÃ”NG TY  TNHH Äáº¦U TÆ¯ THÆ¯Æ NG Máº I Dá»ŠCH Vá»¤ SHT\nTrá»¥ sá»Ÿ táº¡i : 706 LÃª VÄƒn LÆ°Æ¡ng - XÃ£ PhÆ°á»›c kiá»ƒn - Huyá»‡n NhÃ  BÃ¨.Tp.HCM\nTel : (08)378 15184 \nw: www.sht.com.vn","location":{"city":"NhÃ  BÃ¨ District","latitude":10.6833,"longitude":106.767,"street":"706 LÃª vÄƒn lÆ°Æ¡ng,phÆ°á»›c kiá»ƒn,nhÃ  bÃ¨"},"phone":"0949966769"},"id":"298911166924632"},{"name":"Äáº§u Heo Store","checkins":217,"page":{"id":"848081498709894","name":"Äáº§u Heo Store","link":"https://www.facebook.com/848081498709894","location":{"city":"NhÆ¡n Tráº¡ch","latitude":10.678447300965,"longitude":106.78826808929}},"id":"848081502043227"},{"name":"Äáº§u tÆ° phÃ¡t triá»ƒn nhÃ  Ä‘áº¥t PhÃº Má»¹","checkins":0,"page":{"id":"109282980882565","name":"Äáº§u tÆ° phÃ¡t triá»ƒn nhÃ  Ä‘áº¥t PhÃº Má»¹","link":"https://www.facebook.com/109282980882565","location":{"city":"Binh Thanh","latitude":10.66564,"longitude":106.77554,"street":"bÃ¬nh tháº¡nh"},"phone":"0708146229"},"id":"109283880882475"},{"name":"Äáº§u tÆ° Báº¥t Ä‘á»™ng sáº£n NhÆ¡n Tráº¡ch","checkins":44,"page":{"id":"110984977017531","name":"Äáº§u tÆ° Báº¥t Ä‘á»™ng sáº£n NhÆ¡n Tráº¡ch","link":"https://www.facebook.com/110984977017531","about":"- TÆ° váº¥n Ä‘áº§u tÆ° (mua/bÃ¡n/mÃ´i giá»›i) báº¥t Ä‘á»™ng sáº£n táº¡i NhÆ¡n Tráº¡ch.\n- Há»— trá»£ phÃ¡p lÃ½, ngÃ¢n hÃ ng, thá»§ tá»¥c mua/bÃ¡n,...","location":{"city":"NhÆ¡n Tráº¡ch","latitude":10.6762599,"longitude":106.86462,"street":"HÃ¹ng VÆ°Æ¡ng"},"phone":"+84932011955"},"id":"110985163684179"},{"name":"Datdainhacua.vn - NÆ¡i Ä‘áº§u tÆ° Ä‘áº¥t Ä‘ai nhÃ  cá»­a tá»‘t nháº¥t","checkins":0,"website":"https://datdainhacua.vn","page":{"id":"107734197713930","name":"Datdainhacua.vn - NÆ¡i Ä‘áº§u tÆ° Ä‘áº¥t Ä‘ai nhÃ  cá»­a tá»‘t nháº¥t","link":"https://www.facebook.com/107734197713930","location":{"city":"Ho Chi Minh City","latitude":10.67251,"longitude":106.86601,"street":"57 ÄÆ°á»ng 19, PhÆ°á»ng BÃ¬nh An, Quáº­n 2"},"phone":"0902068068"},"id":"107734387713911"},{"name":"Äáº¥t ná»n NHÆ N TRáº CH Ä‘áº§u tÆ° GIÃ Ráºº","checkins":0,"website":"bestland-vietnam.com","page":{"id":"1671736119589710","name":"Äáº¥t ná»n NHÆ N TRáº CH Ä‘áº§u tÆ° GIÃ Ráºº","link":"https://www.facebook.com/1671736119589710","location":{"city":"NhÆ¡n Tráº¡ch","latitude":10.676212168228,"longitude":106.86289787292,"street":"HÃ¹ng VÆ°Æ¡ng"},"phone":"0966882968"},"id":"1671736122923043"},{"name":"Äáº§u tÆ° Báº¥t Ä‘á»™ng sáº£n NhÆ¡n Tráº¡ch","checkins":44,"page":{"id":"110984977017531","name":"Äáº§u tÆ° Báº¥t Ä‘á»™ng sáº£n NhÆ¡n Tráº¡ch","link":"https://www.facebook.com/110984977017531","about":"- TÆ° váº¥n Ä‘áº§u tÆ° (mua/bÃ¡n/mÃ´i giá»›i) báº¥t Ä‘á»™ng sáº£n táº¡i NhÆ¡n Tráº¡ch.\n- Há»— trá»£ phÃ¡p lÃ½, ngÃ¢n hÃ ng, thá»§ tá»¥c mua/bÃ¡n,...","location":{"city":"NhÆ¡n Tráº¡ch","latitude":10.6762599,"longitude":106.86462,"street":"HÃ¹ng VÆ°Æ¡ng"},"phone":"+84932011955"},"id":"110985163684179"},{"name":"Datdainhacua.vn - NÆ¡i Ä‘áº§u tÆ° Ä‘áº¥t Ä‘ai nhÃ  cá»­a tá»‘t nháº¥t","checkins":0,"website":"https://datdainhacua.vn","page":{"id":"107734197713930","name":"Datdainhacua.vn - NÆ¡i Ä‘áº§u tÆ° Ä‘áº¥t Ä‘ai nhÃ  cá»­a tá»‘t nháº¥t","link":"https://www.facebook.com/107734197713930","location":{"city":"Ho Chi Minh City","latitude":10.67251,"longitude":106.86601,"street":"57 ÄÆ°á»ng 19, PhÆ°á»ng BÃ¬nh An, Quáº­n 2"},"phone":"0902068068"},"id":"107734387713911"},{"name":"Äáº¥t ná»n NHÆ N TRáº CH Ä‘áº§u tÆ° GIÃ Ráºº","checkins":0,"website":"bestland-vietnam.com","page":{"id":"1671736119589710","name":"Äáº¥t ná»n NHÆ N TRáº CH Ä‘áº§u tÆ° GIÃ Ráºº","link":"https://www.facebook.com/1671736119589710","location":{"city":"NhÆ¡n Tráº¡ch","latitude":10.676212168228,"longitude":106.86289787292,"street":"HÃ¹ng VÆ°Æ¡ng"},"phone":"0966882968"},"id":"1671736122923043"},{"name":"Äáº§u TÆ° PhÃ¡t Triá»ƒn CÃ´ng Nghá»‡ Quá»‘c Gia Adg - CN","checkins":0,"page":{"id":"1348495141937492","name":"Äáº§u TÆ° PhÃ¡t Triá»ƒn CÃ´ng Nghá»‡ Quá»‘c Gia Adg - CN","link":"https://www.facebook.com/1348495141937492","location":{"city":"BÃ¬nh ChÃ¡nh","latitude":10.66307,"longitude":106.56712,"street":"1A"},"phone":"+84 8 5429 8068"},"id":"1348495148604158"},{"name":"ÄÃ¢Ì€u TÆ° NhaÌ€ ÄÃ¢Ìt BiÌ€nh ChaÌnh 24h","checkins":0,"website":"https://www.chotot.com/user/3d8fe9451dd3dd7ca15dfbd67d75a81b#xtatc=INT-1-[Profileview]","page":{"id":"113559963669933","name":"ÄÃ¢Ì€u TÆ° NhaÌ€ ÄÃ¢Ìt BiÌ€nh ChaÌnh 24h","link":"https://www.facebook.com/113559963669933","about":"BaÌn nhaÌ€ trong khu Ä‘Ã´ thiÌ£ phiÌa sau chÆ¡Ì£ BiÌ€nh ChaÌnh , baÌn nhaÌ€ mÄƒÌ£t phÃ´Ì vaÌ€ biÃªÌ£t thÆ°Ì£ mini coÌ Ä‘Ã¢Ì€y Ä‘uÌ‰ diÃªÌ£n tiÌch Ä‘a daÌ£ng , giaÌ caÌ‰ hÆ¡Ì£p lyÌ .","location":{"city":"BÃ¬nh ChÃ¡nh","latitude":10.66088,"longitude":106.57655,"street":"Ngay chÆ¡Ì£ BiÌ€nh ChaÌnh"},"phone":"+84768722508"},"id":"113560167003246"},{"name":"NhÃ  Äáº¥t TPHCM GiÃ¡ ráº» - Äáº§u TÆ° SiÃªu Lá»£i Nhuáº­n","checkins":0,"page":{"id":"115389936525728","name":"NhÃ  Äáº¥t TPHCM GiÃ¡ ráº» - Äáº§u TÆ° SiÃªu Lá»£i Nhuáº­n","link":"https://www.facebook.com/115389936525728","location":{"city":"BÃ¬nh ChÃ¡nh","latitude":10.6608699,"longitude":106.57656,"street":"21a/5 Ä‘inh Ä‘á»©c thiá»‡n bÃ¬nh chÃ¡nh"},"phone":"0393226040"},"id":"115390109859044"},{"name":"Chá»§ Äáº§u TÆ° Dá»± Ãn NÄƒm Sao Eco City GÃ­a Gá»‘c, CK Cá»±c Shock","checkins":0,"page":{"id":"2174415126148959","name":"Chá»§ Äáº§u TÆ° Dá»± Ãn NÄƒm Sao Eco City GÃ­a Gá»‘c, CK Cá»±c Shock","link":"https://www.facebook.com/2174415126148959","location":{"city":"Ho Chi Minh City","latitude":10.6608699,"longitude":106.57656,"street":"Ä‘inh Ä‘á»©c thiá»‡n"},"phone":"0911988035"},"id":"2174415132815625"},{"name":"TÆ° váº¥n mua bÃ¡n Ä‘áº§u tÆ° Ä‘áº¥t ná»n BienHoa Newcity","checkins":0,"page":{"id":"113002340118846","name":"TÆ° váº¥n mua bÃ¡n Ä‘áº§u tÆ° Ä‘áº¥t ná»n BienHoa Newcity","link":"https://www.facebook.com/113002340118846","location":{"city":"BÃ¬nh ChÃ¡nh","latitude":10.6667,"longitude":106.567,"street":"LÃ´ M4.44 KDC Äáº¡i PhÃºc Green Villas, 6B Pháº¡m HÃ¹ng, BÃ¬nh HÆ°ng, BÃ¬nh ChÃ¡nh"},"phone":"0908987781"},"id":"113002516785495"},{"name":"CÃ´ng Ty Cá»• Pháº§n Äáº§u TÆ° XÃ¢y Dá»±ng Duy Tháº¯ng","checkins":0,"page":{"id":"640242296477562","name":"CÃ´ng Ty Cá»• Pháº§n Äáº§u TÆ° XÃ¢y Dá»±ng Duy Tháº¯ng","link":"https://www.facebook.com/640242296477562","about":"DTC Invest\nChuyÃªn thi cÃ´ng nhÃ  phá»‘ - NhÃ  liá»n ká» - Biá»‡t thá»± sÃ¢n vÆ°á»n","location":{"city":"Ho Chi Minh City","latitude":10.6608699,"longitude":106.57656,"street":"Äinh Äá»©c Thiá»‡n"},"phone":"+84931472340"},"id":"640242446477547"},{"name":"CÃ´ng ty Cá»• pháº§n TÆ° váº¥n Äáº§u tÆ° TM XD DV Báº¥t Ä‘á»™ng sáº£n TÃ i Há»“ng Ngá»c","checkins":1,"page":{"id":"1481707081970713","name":"CÃ´ng ty Cá»• pháº§n TÆ° váº¥n Äáº§u tÆ° TM XD DV Báº¥t Ä‘á»™ng sáº£n TÃ i Há»“ng Ngá»c","link":"https://www.facebook.com/1481707081970713","about":"Äáº§u tÆ°, kháº£o sÃ¡t, tÆ° váº¥n thiáº¿t káº¿, tÆ° váº¥n giÃ¡m sÃ¡t, thi cÃ´ng xÃ¢y dá»±ng dÃ¢n dá»¥ng vÃ  cÃ´ng nghiá»‡p, kiá»ƒm Ä‘á»‹nh cháº¥t lÆ°á»£ng cÃ´ng trÃ¬nh, tháº©m tra thiáº¿t káº¿, ....","location":{"city":"BÃ¬nh ChÃ¡nh","latitude":10.6667,"longitude":106.567},"phone":"0979730509"},"id":"1481724798635608"},{"name":"Expressplus - ECC - Chá»£ Äáº§u Má»‘i Sá»‰ Thá»i Trang","checkins":0,"page":{"id":"100159278452672","name":"Expressplus - ECC - Chá»£ Äáº§u Má»‘i Sá»‰ Thá»i Trang","link":"https://www.facebook.com/100159278452672","location":{"city":"BÃ¬nh ChÃ¡nh","latitude":10.6605,"longitude":106.58224,"street":"ho chi minh"},"phone":"0815153707"},"id":"100159411785992"},{"name":"Äáº¥t Ná»n BÃ¬nh ChÃ¡nh_Sá»• Há»“ng_ChÃ­nh Chá»§_Äáº§u TÆ°","checkins":0,"page":{"id":"2574997495845026","name":"Äáº¥t Ná»n BÃ¬nh ChÃ¡nh_Sá»• Há»“ng_ChÃ­nh Chá»§_Äáº§u TÆ°","link":"https://www.facebook.com/2574997495845026","about":"Dá»± Ã¡n Ä‘áº¥t ná»n bÃ¬nh chÃ¡nh, Ä‘áº¥t bÃ¬nh chÃ¡nh, Ä‘áº¥t ná»n bÃ¬nh chÃ¡nh, du an binh chanh, Ä‘áº¥t ná»n khu vá»±c bÃ¬nh chÃ¡nh, bÃ¬nh chÃ¡nh, Ä‘áº¥t bÃ¬nh chÃ¡nh giÃ¡ tá»‘t, Ä‘áº¥t nÃªn giÃ¡ ráº» bÃ¬nh chÃ¡nh,","location":{"city":"Ho Chi Minh City","latitude":10.66053,"longitude":106.58324,"street":"Binh ChÃ¡nh"},"phone":"0942301168"},"id":"2574997772511665"},{"name":"Apec Mandala Wynham MÅ©i NÃ© Phan Thiáº¿t - Äáº§u TÆ° SiÃªu Lá»£i Nhuáº­n","checkins":0,"website":"https://worldlandcorp.vn/lien-he","page":{"id":"100113075029515","name":"Apec Mandala Wynham MÅ©i NÃ© Phan Thiáº¿t - Äáº§u TÆ° SiÃªu Lá»£i Nhuáº­n","link":"https://www.facebook.com/100113075029515","about":"Apec Mandala Wynham MÅ©i NÃ© - CÄƒn há»™ khÃ¡ch sáº¡n Ä‘áº¡t chuáº©n 5 sao tiÃªn phong trÃªn Vá»‹nh biá»ƒn thiÃªn Ä‘Æ°á»ng MÅ©i NÃ© - Phan Thiáº¿t.\n","location":{"city":"MÅ©i NÃ©","latitude":10.6605,"longitude":106.58224},"phone":"+84939703355"},"id":"100113208362835"},{"name":"NhÃ  Äáº¥t TPHCM GiÃ¡ ráº» - Äáº§u TÆ° SiÃªu Lá»£i Nhuáº­n","checkins":0,"website":"https://www.youtube.com/channel/UCkJBQ-u0gmk2Pppd0OMmhuw","page":{"id":"614882125684709","name":"NhÃ  Äáº¥t TPHCM GiÃ¡ ráº» - Äáº§u TÆ° SiÃªu Lá»£i Nhuáº­n","link":"https://www.facebook.com/614882125684709","about":"Mua bÃ¡n nhÃ  Ä‘áº¥t TPHCM Æ¯u tiÃªn vá»‹ trÃ­ Ä‘áº¹p , nhÃ  Ä‘áº¹p , giÃ¡ tá»‘t Nhanh tay liÃªn há»‡: 039.322.6040 hoáº·c 0976.263.260 Ä‘á»ƒ Ä‘Æ°á»£c há»— trá»£ tá»‘t nháº¥t","location":{"city":"Ho Chi Minh City","latitude":10.66053,"longitude":106.58324,"street":"BÃ¬nh ChÃ¡nh"},"phone":"+84976263260"},"id":"614882315684690"},{"name":"ÄÃ¢Ì€u TÆ° NhaÌ€ ÄÃ¢Ìt BiÌ€nh ChaÌnh 24h","checkins":0,"website":"https://www.chotot.com/user/3d8fe9451dd3dd7ca15dfbd67d75a81b#xtatc=INT-1-[Profileview]","page":{"id":"113559963669933","name":"ÄÃ¢Ì€u TÆ° NhaÌ€ ÄÃ¢Ìt BiÌ€nh ChaÌnh 24h","link":"https://www.facebook.com/113559963669933","about":"BaÌn nhaÌ€ trong khu Ä‘Ã´ thiÌ£ phiÌa sau chÆ¡Ì£ BiÌ€nh ChaÌnh , baÌn nhaÌ€ mÄƒÌ£t phÃ´Ì vaÌ€ biÃªÌ£t thÆ°Ì£ mini coÌ Ä‘Ã¢Ì€y Ä‘uÌ‰ diÃªÌ£n tiÌch Ä‘a daÌ£ng , giaÌ caÌ‰ hÆ¡Ì£p lyÌ .","location":{"city":"BÃ¬nh ChÃ¡nh","latitude":10.66088,"longitude":106.57655,"street":"Ngay chÆ¡Ì£ BiÌ€nh ChaÌnh"},"phone":"+84768722508"},"id":"113560167003246"},{"name":"Há»™i Tá»¥ Äáº§u TÆ° Báº¥t Äá»™ng Sáº£n Tiá»m NÄƒng 366","checkins":8,"website":"http://phucuong.vnn.mn/","page":{"id":"173677883314055","name":"Há»™i Tá»¥ Äáº§u TÆ° Báº¥t Äá»™ng Sáº£n Tiá»m NÄƒng 366","link":"https://www.facebook.com/173677883314055","about":"Nháº­n LÃ m Giáº¥y PhÃ©p XÃ¢y Dá»±ng, HoÃ n CÃ´ng, NhÃ  Äáº¥t.\nLuáº­t sÆ° báº¥t Ä‘á»™ng sáº£n chuyÃªn lÃ m sá»• há»“ng sá»• Ä‘á»\nNháº­n PhÃ¢n LÃ´, TÃ¡ch Thá»­a, Chuyá»ƒn Äá»•i Má»¥c ÄÃ­ch Quyá»n Sá»­ Dá»¥ng Äáº¥t. LÃªn Äáº¥t Thá»• CÆ°\n","location":{"latitude":10.647249095695,"longitude":106.59132251376,"street":"Bá» Dáº¿"},"phone":"+84901339469"},"id":"322252825123226"},{"name":"NhÃ  Äáº¥t TPHCM GiÃ¡ ráº» - Äáº§u TÆ° SiÃªu Lá»£i Nhuáº­n","checkins":0,"page":{"id":"115389936525728","name":"NhÃ  Äáº¥t TPHCM GiÃ¡ ráº» - Äáº§u TÆ° SiÃªu Lá»£i Nhuáº­n","link":"https://www.facebook.com/115389936525728","location":{"city":"BÃ¬nh ChÃ¡nh","latitude":10.6608699,"longitude":106.57656,"street":"21a/5 Ä‘inh Ä‘á»©c thiá»‡n bÃ¬nh chÃ¡nh"},"phone":"0393226040"},"id":"115390109859044"},{"name":"ChuyÃªn Äáº¥t Ná»n Äáº§u TÆ° F1 ThÆ°Æ¡ng Máº¡i Long An","checkins":0,"page":{"id":"1245480508959517","name":"ChuyÃªn Äáº¥t Ná»n Äáº§u TÆ° F1 ThÆ°Æ¡ng Máº¡i Long An","link":"https://www.facebook.com/1245480508959517","about":"BÃ¡n ChuyÃªn Äáº¥t Ná»n Thá»• CÆ° GiÃ¡ Ráº» ChÃ­nh Chá»§, PhÃ¡p LÃ½ RÃµ RÃ ng, Sá»• Há»“ng RiÃªng, XÃ¢y Dá»±ng Tá»± Do, Tiá»m NÄƒng Sinh lá»i Cao, Vá»‹ TrÃ­ GiÃ¡p TPHCM.\n0901 339 469 Tuáº¥n","location":{"city":"Ho Chi Minh City","latitude":10.659545229631,"longitude":106.59423114075,"street":"D9/9 HÆ°Æ¡ng Lá»™ 11"},"phone":"+84901339469"},"id":"1245480682292833"},{"name":"CÃ´ng Ty Cá»• Pháº§n Äáº§u TÆ° XÃ¢y Dá»±ng Duy Tháº¯ng","checkins":0,"page":{"id":"640242296477562","name":"CÃ´ng Ty Cá»• Pháº§n Äáº§u TÆ° XÃ¢y Dá»±ng Duy Tháº¯ng","link":"https://www.facebook.com/640242296477562","about":"DTC Invest\nChuyÃªn thi cÃ´ng nhÃ  phá»‘ - NhÃ  liá»n ká» - Biá»‡t thá»± sÃ¢n vÆ°á»n","location":{"city":"Ho Chi Minh City","latitude":10.6608699,"longitude":106.57656,"street":"Äinh Äá»©c Thiá»‡n"},"phone":"+84931472340"},"id":"640242446477547"},{"name":"Chá»§ Äáº§u TÆ° Dá»± Ãn NÄƒm Sao Eco City GÃ­a Gá»‘c, CK Cá»±c Shock","checkins":0,"page":{"id":"2174415126148959","name":"Chá»§ Äáº§u TÆ° Dá»± Ãn NÄƒm Sao Eco City GÃ­a Gá»‘c, CK Cá»±c Shock","link":"https://www.facebook.com/2174415126148959","location":{"city":"Ho Chi Minh City","latitude":10.6608699,"longitude":106.57656,"street":"Ä‘inh Ä‘á»©c thiá»‡n"},"phone":"0911988035"},"id":"2174415132815625"},{"name":"Dáº§u Gá»™i DÆ°á»¡ng TÃ³c.                      Tháº£o DÆ°á»£c ThiÃªn NhiÃªn.","checkins":0,"website":"http://Shopee.vn/hoongcaam","page":{"id":"105996917554604","name":"Dáº§u Gá»™i DÆ°á»¡ng TÃ³c.                      Tháº£o DÆ°á»£c ThiÃªn NhiÃªn.","link":"https://www.facebook.com/105996917554604","about":"TÃ³c mÆ°á»£t, kÃ­ch thÃ­ch má»c tÃ³c con nhanh, giáº£m rá»¥ng, giáº£m gÃ u,giáº£m Ä‘au Ä‘áº§u, tÃ³c dÃ y hÆ¡n, trá»‹ báº¡c tÃ³c, ngÄƒn rá»¥ng tÃ³c, nuÃ´i dÆ°á»¡ng tÃ³c dÃ y hÆ¡n, suÃ´n mÆ°á»£t hÆ¡nâ€¦\n","location":{"city":"Ho Chi Minh City","latitude":10.658161814991,"longitude":106.59630775452,"street":"Äinh Äá»©c Thiá»‡n TÃ¢n QuÃ½ TÃ¢y BÃ¬nh ChÃ¡nh TPHCM"},"phone":"+84972795109"},"id":"107070284113934"},{"name":"Äáº¥t VÃ ng Äáº§u TÆ°","checkins":0,"page":{"id":"557191054464682","name":"Äáº¥t VÃ ng Äáº§u TÆ°","link":"https://www.facebook.com/557191054464682","about":"Kinh doanh mua bÃ¡n báº¥t Ä‘á»™ng sáº£n","location":{"city":"Ho Chi Minh City","latitude":10.66643,"longitude":106.57876,"street":"141 huá»³nh vÄƒn trÃ­ , bÃ¬nh chÃ¡nh"},"phone":"0907339720"},"id":"557191104464677"},{"name":"Dáº§u Gá»™i DÆ°á»¡ng TÃ³c.                      Tháº£o DÆ°á»£c ThiÃªn NhiÃªn.","checkins":0,"website":"http://Shopee.vn/hoongcaam","page":{"id":"105996917554604","name":"Dáº§u Gá»™i DÆ°á»¡ng TÃ³c.                      Tháº£o DÆ°á»£c ThiÃªn NhiÃªn.","link":"https://www.facebook.com/105996917554604","about":"TÃ³c mÆ°á»£t, kÃ­ch thÃ­ch má»c tÃ³c con nhanh, giáº£m rá»¥ng, giáº£m gÃ u,giáº£m Ä‘au Ä‘áº§u, tÃ³c dÃ y hÆ¡n, trá»‹ báº¡c tÃ³c, ngÄƒn rá»¥ng tÃ³c, nuÃ´i dÆ°á»¡ng tÃ³c dÃ y hÆ¡n, suÃ´n mÆ°á»£t hÆ¡nâ€¦\n","location":{"city":"Ho Chi Minh City","latitude":10.658161814991,"longitude":106.59630775452,"street":"Äinh Äá»©c Thiá»‡n TÃ¢n QuÃ½ TÃ¢y BÃ¬nh ChÃ¡nh TPHCM"},"phone":"+84972795109"},"id":"107070284113934"},{"name":"ChuyÃªn Äáº¥t Ná»n Äáº§u TÆ° F1 ThÆ°Æ¡ng Máº¡i Long An","checkins":0,"page":{"id":"1245480508959517","name":"ChuyÃªn Äáº¥t Ná»n Äáº§u TÆ° F1 ThÆ°Æ¡ng Máº¡i Long An","link":"https://www.facebook.com/1245480508959517","about":"BÃ¡n ChuyÃªn Äáº¥t Ná»n Thá»• CÆ° GiÃ¡ Ráº» ChÃ­nh Chá»§, PhÃ¡p LÃ½ RÃµ RÃ ng, Sá»• Há»“ng RiÃªng, XÃ¢y Dá»±ng Tá»± Do, Tiá»m NÄƒng Sinh lá»i Cao, Vá»‹ TrÃ­ GiÃ¡p TPHCM.\n0901 339 469 Tuáº¥n","location":{"city":"Ho Chi Minh City","latitude":10.659545229631,"longitude":106.59423114075,"street":"D9/9 HÆ°Æ¡ng Lá»™ 11"},"phone":"+84901339469"},"id":"1245480682292833"},{"name":"Äáº§u tÆ° Ä‘áº¥t ná»n giÃ¡ ráº» - Sá»• riÃªng - Sang tÃªn ngay","checkins":0,"page":{"id":"101887245061484","name":"Äáº§u tÆ° Ä‘áº¥t ná»n giÃ¡ ráº» - Sá»• riÃªng - Sang tÃªn ngay","link":"https://www.facebook.com/101887245061484","about":"Thá»‹nh PhÃ¡t Real estate láº¥y niá»m tin lÃ m gá»‘c rá»…. Gia tÄƒng gÃ­ trá»‹ cho quÃ½ khÃ¡ch hÃ ng lÃ  sá»© má»‡nh cá»§a chÃºng tÃ´i  \n","location":{"city":"Ho Chi Minh City","latitude":10.6565087,"longitude":106.6876186,"street":"540 LÃª VÄƒn LÆ°Æ¡ng"},"phone":"0907459368"},"id":"101887388394803"},{"name":"Äáº¥t ná»n Ä‘áº§u tÆ° - Sang tÃªn ngay","checkins":0,"page":{"id":"101603395090304","name":"Äáº¥t ná»n Ä‘áº§u tÆ° - Sang tÃªn ngay","link":"https://www.facebook.com/101603395090304","location":{"city":"Ho Chi Minh City","latitude":10.6565087,"longitude":106.6876186,"street":"544 LÃª VÄƒn LÆ°Æ¡ng"},"phone":"0907459368"},"id":"101603535090290"},{"name":"Äáº§u TÆ° NhÃ  Äáº¥t An ToÃ n","checkins":0,"page":{"id":"241566406606503","name":"Äáº§u TÆ° NhÃ  Äáº¥t An ToÃ n","link":"https://www.facebook.com/241566406606503","location":{"city":"Ho Chi Minh City","latitude":10.6575841,"longitude":106.6893011,"street":"LÃª VÄƒn LÆ°Æ¡ng, Quáº­n 7"},"phone":"01636880357"},"id":"241566413273169"},{"name":"Äáº§u tÆ° Ä‘áº¥t ná»n giÃ¡ ráº» - Sá»• riÃªng - Sang tÃªn ngay","checkins":0,"page":{"id":"101887245061484","name":"Äáº§u tÆ° Ä‘áº¥t ná»n giÃ¡ ráº» - Sá»• riÃªng - Sang tÃªn ngay","link":"https://www.facebook.com/101887245061484","about":"Thá»‹nh PhÃ¡t Real estate láº¥y niá»m tin lÃ m gá»‘c rá»…. Gia tÄƒng gÃ­ trá»‹ cho quÃ½ khÃ¡ch hÃ ng lÃ  sá»© má»‡nh cá»§a chÃºng tÃ´i  \n","location":{"city":"Ho Chi Minh City","latitude":10.6565087,"longitude":106.6876186,"street":"540 LÃª VÄƒn LÆ°Æ¡ng"},"phone":"0907459368"},"id":"101887388394803"},{"name":"Äáº¥t ná»n Ä‘áº§u tÆ° - Sang tÃªn ngay","checkins":0,"page":{"id":"101603395090304","name":"Äáº¥t ná»n Ä‘áº§u tÆ° - Sang tÃªn ngay","link":"https://www.facebook.com/101603395090304","location":{"city":"Ho Chi Minh City","latitude":10.6565087,"longitude":106.6876186,"street":"544 LÃª VÄƒn LÆ°Æ¡ng"},"phone":"0907459368"},"id":"101603535090290"},{"name":"Äáº§u TÆ° NhÃ  Äáº¥t An ToÃ n","checkins":0,"page":{"id":"241566406606503","name":"Äáº§u TÆ° NhÃ  Äáº¥t An ToÃ n","link":"https://www.facebook.com/241566406606503","location":{"city":"Ho Chi Minh City","latitude":10.6575841,"longitude":106.6893011,"street":"LÃª VÄƒn LÆ°Æ¡ng, Quáº­n 7"},"phone":"01636880357"},"id":"241566413273169"},{"name":"Tá»¥i mÃ¬nh 4.0 - Chia sáº» CÆ¡ há»™i Äáº§u tÆ° Blockchain - Crypto Currency","checkins":0,"page":{"id":"402678940577834","name":"Tá»¥i mÃ¬nh 4.0 - Chia sáº» CÆ¡ há»™i Äáº§u tÆ° Blockchain - Crypto Currency","link":"https://www.facebook.com/402678940577834","about":"Chia sáº» kiáº¿n thá»©c, GiÃ¡o dá»¥c vá» tÃ i chÃ­nh, chuyá»ƒn táº£i nhá»¯ng thÃ´ng tin vá» cÃ´ng nghá»‡ 4.0, Blockchain (Chuá»—i khá»‘i), Crypto Currency (Tiá»n mÃ£ hÃ³a kÄ© thuáº­t sá»‘).","location":{"city":"Ho Chi Minh City","latitude":10.660607953625,"longitude":106.69921875,"street":"390/101 Nguyá»…n ÄÃ¬nh Chiá»ƒu"},"phone":"+84934519330"},"id":"407152060130522"},{"name":"CÄƒn Há»™ La Partenza - ThÃ´ng Tin ChÃ­nh Thá»©c Chá»§ Äáº§u TÆ°","checkins":2,"website":"http://lapatenza.com/","page":{"id":"106369927471343","name":"CÄƒn Há»™ La Partenza - ThÃ´ng Tin ChÃ­nh Thá»©c Chá»§ Äáº§u TÆ°","link":"https://www.facebook.com/106369927471343","about":"Dá»± Ãn La Partenza NhÃ  BÃ¨, Ä‘Æ°á»£c xem lÃ  cÄƒn há»™ chung cÆ° Ä‘áº¹p báº­c nháº¥t Ä‘áº¿n thá»i Ä‘iá»ƒm hiá»‡n táº¡i","location":{"city":"Ho Chi Minh City","latitude":10.66369,"longitude":106.6938,"street":"1805 LÃª VÄƒn LÆ°Æ¡ng, NhÆ¡n Äá»©c, NhÃ  BÃ¨"},"phone":"+84909917898"},"id":"106370127471323"},{"name":"Tá»¥i mÃ¬nh 4.0 - Chia sáº» CÆ¡ há»™i Äáº§u tÆ° Blockchain - Crypto Currency","checkins":0,"page":{"id":"402678940577834","name":"Tá»¥i mÃ¬nh 4.0 - Chia sáº» CÆ¡ há»™i Äáº§u tÆ° Blockchain - Crypto Currency","link":"https://www.facebook.com/402678940577834","about":"Chia sáº» kiáº¿n thá»©c, GiÃ¡o dá»¥c vá» tÃ i chÃ­nh, chuyá»ƒn táº£i nhá»¯ng thÃ´ng tin vá» cÃ´ng nghá»‡ 4.0, Blockchain (Chuá»—i khá»‘i), Crypto Currency (Tiá»n mÃ£ hÃ³a kÄ© thuáº­t sá»‘).","location":{"city":"Ho Chi Minh City","latitude":10.660607953625,"longitude":106.69921875,"street":"390/101 Nguyá»…n ÄÃ¬nh Chiá»ƒu"},"phone":"+84934519330"},"id":"407152060130522"},{"name":"CÃ´ng Ty Cá»• Pháº§n Äáº§u TÆ° Quá»‘c Táº¿ Song PhÃº Thá»‹nh","checkins":24,"website":"www.vinasunnat.com","page":{"id":"366234153761753","name":"CÃ´ng Ty Cá»• Pháº§n Äáº§u TÆ° Quá»‘c Táº¿ Song PhÃº Thá»‹nh","link":"https://www.facebook.com/366234153761753","about":"ChuyÃªn sáº£n xuáº¥t  tinh bá»™t nghá»‡  nguyÃªn cháº¥t 100%\n\n\n\n\n","location":{"city":"NhÃ  BÃ¨ District","latitude":10.652365260002,"longitude":106.726505142,"street":"274/35 Nguá»…n VÄƒn Táº¡o"},"phone":"  0902924933"},"id":"441532112898623"},{"name":"Dá»± Ãn HarBour View - Page ChÃ­nh Thá»©c Tá»« Chá»§ Äáº§u TÆ°","checkins":1,"page":{"id":"100138138396817","name":"Dá»± Ãn HarBour View - Page ChÃ­nh Thá»©c Tá»« Chá»§ Äáº§u TÆ°","link":"https://www.facebook.com/100138138396817","location":{"city":"NhÃ  BÃ¨ District","latitude":10.654,"longitude":106.72914,"street":"Nguyá»…n VÄƒn Táº¡o"},"phone":"0987049087"},"id":"100138348396796"},{"name":"Äáº§u TÆ° Báº¥t Äá»™ng Sáº£n NHÃ€ BÃˆ","checkins":1,"website":"http://www.nhabeland.vn","page":{"id":"1454154284885955","name":"Äáº§u TÆ° Báº¥t Äá»™ng Sáº£n NHÃ€ BÃˆ","link":"https://www.facebook.com/1454154284885955","about":"NGÃ”I NHÃ€ Cá»¦A Æ¯á»šC MÆ ","location":{"city":"Ho Chi Minh City","latitude":10.66624,"longitude":106.72526,"street":"59 Nguyá»…n VÄƒn Táº¡o. áº¤p 3. XÃ£ Long Thá»›i. Huyá»‡n NhÃ  BÃ¨"},"phone":"0907088368"},"id":"1469470260021024"},{"name":"Äiá»u Trá»‹ Má»¥n Báº±ng á»ng Tre THÃ™Y TRANG","checkins":3224,"page":{"id":"1773975136158106","name":"Äiá»u Trá»‹ Má»¥n Báº±ng á»ng Tre THÃ™Y TRANG","link":"https://www.facebook.com/1773975136158106","about":"CHUYÃŠN : -ÄIá»€U TRá»Š Má»¤N Báº°NG HÃšT á»NG TRE - CHÄ‚M SÃ“C DA TOÃ€N DIá»†N Báº°NG CÃ”NG NGHá»† CAO - PHUN XÃ‚M MÃ€Y, MÃ”I - Sá»¬ Dá»¤NG, BÃN Sá»ˆ & Láºº Má»¶ PHáº¨M HÃ€N QUá»C CHÃNH HÃƒNG.","location":{"city":"Ho Chi Minh City","latitude":10.667419080885,"longitude":106.72417402267,"street":"58/28 Nguyá»…n VÄƒn Táº¡o, áº¤p 3, XÃ£  Long Thá»›i, Huyá»‡n  NhÃ  BÃ¨ (Ngay vÃ²ng xoay-Äáº§u Ä‘Æ°á»ng Nguyá»…n VÄƒn Táº¡o)"},"phone":"+84853550880"},"id":"1773975179491435"},{"name":"CÃ´ng ty tnhh Ä‘áº§u tÆ° thÆ°Æ¡ng máº¡i váº¡n thiÃªn phÃº","checkins":0,"page":{"id":"363234990551172","name":"CÃ´ng ty tnhh Ä‘áº§u tÆ° thÆ°Æ¡ng máº¡i váº¡n thiÃªn phÃº","link":"https://www.facebook.com/363234990551172","about":"ChuyÃªn cung cáº¥p cÃ¡c sáº£n pháº©m sÆ¡n KENNY, MYKOLOR, DULUX....cháº¥t lÆ°á»£ng nháº¥t,giÃ¡ há»£p lÃ½ nháº¥t","location":{"city":"Ho Chi Minh City","latitude":10.643934725602,"longitude":106.7321406856,"street":"506 nguyá»…n vÄƒn táº¡o ,xÃ£ long thá»›i ,huyá»‡n nhÃ  bÃ¨"},"phone":"0978016079"},"id":"363235017217836"},{"name":"Hiá»‡p Há»™i Äáº§u TÆ° ká»¹ Thuáº­t Sá»‘","checkins":0,"page":{"id":"105507050962249","name":"Hiá»‡p Há»™i Äáº§u TÆ° ká»¹ Thuáº­t Sá»‘","link":"https://www.facebook.com/105507050962249","about":"Trang giáº£i trÃ­ giÃºp má»i ngÆ°á»i cÃ¹ng nhau vui váº» vÃ  cÃ¡ch lÃ m giÃ u cho báº¡n thÃ¢n ","location":{"city":"Ho Chi Minh City","latitude":10.658606273363,"longitude":106.77973468775,"street":"16 Ä‘Æ°á»ng 29, phÆ°á»ng bÃ¬nh trÆ°ng tÃ¢y , quáº­n 2 thÃ nh phá»‘ há»“ chÃ­ minh"},"phone":"+639055004813"},"id":"106491380863816"},{"name":"Äáº§u tÆ° phÃ¡t triá»ƒn nhÃ  Ä‘áº¥t PhÃº Má»¹","checkins":0,"page":{"id":"109282980882565","name":"Äáº§u tÆ° phÃ¡t triá»ƒn nhÃ  Ä‘áº¥t PhÃº Má»¹","link":"https://www.facebook.com/109282980882565","location":{"city":"Binh Thanh","latitude":10.66564,"longitude":106.77554,"street":"bÃ¬nh tháº¡nh"},"phone":"0708146229"},"id":"109283880882475"},{"name":"Äáº§u TÆ° XD KCN VÄ©nh Lá»™c - Báº¿n Lá»©c","checkins":37,"page":{"id":"279315799179432","name":"Äáº§u TÆ° XD KCN VÄ©nh Lá»™c - Báº¿n Lá»©c","link":"https://www.facebook.com/279315799179432","location":{"city":"Ben Luc","latitude":10.6413511,"longitude":106.5173706},"phone":"+84 72 3643 993"},"id":"279315805846098"},{"name":"Äáº¤T Äáº¦U TÆ¯","checkins":0,"page":{"id":"386656715165041","name":"Äáº¤T Äáº¦U TÆ¯","link":"https://www.facebook.com/386656715165041","about":"bÃ¡nh mÃ¬ thá»‹t quay","location":{"city":"Ben Luc","latitude":10.633651704136,"longitude":106.51609809802,"street":"47 QUá»C Lá»˜ 1A LONG HIá»†P"},"phone":"0922940377"},"id":"386656718498374"},{"name":"Há»™i Tá»¥ Äáº§u TÆ° Báº¥t Äá»™ng Sáº£n Tiá»m NÄƒng 366","checkins":8,"website":"http://phucuong.vnn.mn/","page":{"id":"173677883314055","name":"Há»™i Tá»¥ Äáº§u TÆ° Báº¥t Äá»™ng Sáº£n Tiá»m NÄƒng 366","link":"https://www.facebook.com/173677883314055","about":"Nháº­n LÃ m Giáº¥y PhÃ©p XÃ¢y Dá»±ng, HoÃ n CÃ´ng, NhÃ  Äáº¥t.\nLuáº­t sÆ° báº¥t Ä‘á»™ng sáº£n chuyÃªn lÃ m sá»• há»“ng sá»• Ä‘á»\nNháº­n PhÃ¢n LÃ´, TÃ¡ch Thá»­a, Chuyá»ƒn Äá»•i Má»¥c ÄÃ­ch Quyá»n Sá»­ Dá»¥ng Äáº¥t. LÃªn Äáº¥t Thá»• CÆ°\n","location":{"latitude":10.647249095695,"longitude":106.59132251376,"street":"Bá» Dáº¿"},"phone":"+84901339469"},"id":"322252825123226"},{"name":"Äáº¥t Ná»n Äáº§u TÆ° GiÃ¡ Tá»‘t","checkins":0,"page":{"id":"108136789872306","name":"Äáº¥t Ná»n Äáº§u TÆ° GiÃ¡ Tá»‘t","link":"https://www.facebook.com/108136789872306","about":"GIáº¢I PHÃP Äáº¦U TÆ¯ - AN CÆ¯ Láº¬P NGHIá»†P","location":{"city":"Ho Chi Minh City","latitude":10.629093074174,"longitude":106.66144765324,"street":"52 VÃµ LiÃªm SÆ¡n, PhÆ°á»ng 4 ,Quáº­n 8, TPHCM"},"phone":"+84352888893"},"id":"161133444572640"},{"name":"T&T Millennia Chá»§ Äáº§u TÆ°","checkins":26,"website":"http://www.gsland.vn","page":{"id":"463081370869490","name":"T&T Millennia Chá»§ Äáº§u TÆ°","link":"https://www.facebook.com/463081370869490","about":"Äáº¡i Ä‘Ã´ thá»‹ 267 hecta táº¡i Nam SÃ i GÃ²n ","location":{"city":"Ho Chi Minh City","latitude":10.639922453005,"longitude":106.6971634992,"street":"áº¤p 3, Long Háº­u, Long An"},"phone":"+84902531888"},"id":"814094109101546"},{"name":"Äáº¥t Ná»n GiÃ¡ Gá»‘c Chá»§ Äáº§u TÆ°","checkins":229,"page":{"id":"202665230152743","name":"Äáº¥t Ná»n GiÃ¡ Gá»‘c Chá»§ Äáº§u TÆ°","link":"https://www.facebook.com/202665230152743","about":"Biáº¿n Æ°á»›c mÆ¡ sá»Ÿ há»¯u nhÃ  cá»§a QuÃ½ khÃ¡ch thÃ nh sá»± tháº­t.\nMang Ä‘áº¿n giÃ¡ trá»‹ Ä‘áº§u tÆ° sinh lá»i cao cho cÃ¡c nhÃ  Ä‘áº§u tÆ°","location":{"city":"Can Giuoc","latitude":10.639435551206,"longitude":106.69939041138,"street":"Long Háº­u"},"phone":"0933395005"},"id":"214026809016585"},{"name":"Äáº¥t Ná»n GiÃ¡ Gá»‘c Chá»§ Äáº§u TÆ°","checkins":229,"page":{"id":"202665230152743","name":"Äáº¥t Ná»n GiÃ¡ Gá»‘c Chá»§ Äáº§u TÆ°","link":"https://www.facebook.com/202665230152743","about":"Biáº¿n Æ°á»›c mÆ¡ sá»Ÿ há»¯u nhÃ  cá»§a QuÃ½ khÃ¡ch thÃ nh sá»± tháº­t.\nMang Ä‘áº¿n giÃ¡ trá»‹ Ä‘áº§u tÆ° sinh lá»i cao cho cÃ¡c nhÃ  Ä‘áº§u tÆ°","location":{"city":"Can Giuoc","latitude":10.639435551206,"longitude":106.69939041138,"street":"Long Háº­u"},"phone":"0933395005"},"id":"214026809016585"},{"name":"TÆ° Váº¥n  Äáº§u TÆ° Äáº¥t Ná»n  Khu Nam SÃ i GÃ²n","checkins":0,"page":{"id":"138124193405890","name":"TÆ° Váº¥n  Äáº§u TÆ° Äáº¥t Ná»n  Khu Nam SÃ i GÃ²n","link":"https://www.facebook.com/138124193405890","about":"Kinh doanh, tÆ° váº¥n,kÃ½ gá»­i Báº¥t Äá»™ng Sáº£n","location":{"latitude":10.628402166284,"longitude":106.72432077338},"phone":"+84936777960"},"id":"637443763473928"},{"name":"Thuá»‘c Gia Truyá»n Äáº·c Trá»‹ Háº¯c LÃ o - Lang Ben, Váº£y Náº¿n Da Äáº§u Táº­n Gá»‘c","checkins":0,"website":"http://dichvuthongminh24h.com/","page":{"id":"380519895756127","name":"Thuá»‘c Gia Truyá»n Äáº·c Trá»‹ Háº¯c LÃ o - Lang Ben, Váº£y Náº¿n Da Äáº§u Táº­n Gá»‘c","link":"https://www.facebook.com/380519895756127","about":"THUá»C ÄÃ”NG Y GIA TRUYÃŠN NAM HOÃ€NG \nChuyÃªn Ä‘áº·c trá»‹ Táº¬N Gá»C:  váº£y náº¿n, háº¯c lÃ o, lang ben, náº¥m da Ä‘áº§u, náº¥m Ã¡ sá»«ng, náº¥m mÃ³ng, viÃªm da cÆ¡ Ä‘á»‹a, náº¥m tá»• Ä‘á»‰a... ÄÆ°á»£c bÃ o cháº¿ 100% tá»« thiÃªn nhiÃªn!","location":{"city":"Ho Chi Minh City","latitude":10.6326846,"longitude":106.7373657,"street":"15 Phan VÄƒn Báº£y"},"phone":"+84923849859"},"id":"380526112422172"},{"name":"CÃ´ng ty tnhh Ä‘áº§u tÆ° thÆ°Æ¡ng máº¡i váº¡n thiÃªn phÃº","checkins":0,"page":{"id":"363234990551172","name":"CÃ´ng ty tnhh Ä‘áº§u tÆ° thÆ°Æ¡ng máº¡i váº¡n thiÃªn phÃº","link":"https://www.facebook.com/363234990551172","about":"ChuyÃªn cung cáº¥p cÃ¡c sáº£n pháº©m sÆ¡n KENNY, MYKOLOR, DULUX....cháº¥t lÆ°á»£ng nháº¥t,giÃ¡ há»£p lÃ½ nháº¥t","location":{"city":"Ho Chi Minh City","latitude":10.643934725602,"longitude":106.7321406856,"street":"506 nguyá»…n vÄƒn táº¡o ,xÃ£ long thá»›i ,huyá»‡n nhÃ  bÃ¨"},"phone":"0978016079"},"id":"363235017217836"},{"name":"CÃ´ng Ty Cá»• Pháº§n CÆ¡ KhÃ­ VÃ  Äáº§u TÆ° NgÃ´i Sao","checkins":12,"page":{"id":"1667112193597006","name":"CÃ´ng Ty Cá»• Pháº§n CÆ¡ KhÃ­ VÃ  Äáº§u TÆ° NgÃ´i Sao","link":"https://www.facebook.com/1667112193597006","location":{"city":"Ho Chi Minh City","latitude":10.63173,"longitude":106.75897,"street":"ÄÆ¯á»œNG Sá»‘ 16"},"phone":"+84 8 3781 8999"},"id":"1667112200263672"},{"name":"Thuá»‘c Gia Truyá»n Äáº·c Trá»‹ Háº¯c LÃ o - Lang Ben, Váº£y Náº¿n Da Äáº§u Táº­n Gá»‘c","checkins":0,"website":"http://dichvuthongminh24h.com/","page":{"id":"380519895756127","name":"Thuá»‘c Gia Truyá»n Äáº·c Trá»‹ Háº¯c LÃ o - Lang Ben, Váº£y Náº¿n Da Äáº§u Táº­n Gá»‘c","link":"https://www.facebook.com/380519895756127","about":"THUá»C ÄÃ”NG Y GIA TRUYÃŠN NAM HOÃ€NG \nChuyÃªn Ä‘áº·c trá»‹ Táº¬N Gá»C:  váº£y náº¿n, háº¯c lÃ o, lang ben, náº¥m da Ä‘áº§u, náº¥m Ã¡ sá»«ng, náº¥m mÃ³ng, viÃªm da cÆ¡ Ä‘á»‹a, náº¥m tá»• Ä‘á»‰a... ÄÆ°á»£c bÃ o cháº¿ 100% tá»« thiÃªn nhiÃªn!","location":{"city":"Ho Chi Minh City","latitude":10.6326846,"longitude":106.7373657,"street":"15 Phan VÄƒn Báº£y"},"phone":"+84923849859"},"id":"380526112422172"},{"name":"CÃ´ng Ty Cá»• Pháº§n CÆ¡ KhÃ­ VÃ  Äáº§u TÆ° NgÃ´i Sao","checkins":12,"page":{"id":"1667112193597006","name":"CÃ´ng Ty Cá»• Pháº§n CÆ¡ KhÃ­ VÃ  Äáº§u TÆ° NgÃ´i Sao","link":"https://www.facebook.com/1667112193597006","location":{"city":"Ho Chi Minh City","latitude":10.63173,"longitude":106.75897,"street":"ÄÆ¯á»œNG Sá»‘ 16"},"phone":"+84 8 3781 8999"},"id":"1667112200263672"},{"name":"Äáº§u TÆ° NuÃ´i Trá»“ng Thá»§y Sáº£n PhÆ°Æ¡ng Mai","checkins":3,"page":{"id":"161281004397370","name":"Äáº§u TÆ° NuÃ´i Trá»“ng Thá»§y Sáº£n PhÆ°Æ¡ng Mai","link":"https://www.facebook.com/161281004397370","location":{"city":"Ho Chi Minh City","latitude":10.63088,"longitude":106.79646,"street":"ÄÆ¯á»œNG Rá»«ng SÃ¡c"}},"id":"161281011064036"},{"name":"Äáº¤T Äáº¦U TÆ¯","checkins":0,"page":{"id":"386656715165041","name":"Äáº¤T Äáº¦U TÆ¯","link":"https://www.facebook.com/386656715165041","about":"bÃ¡nh mÃ¬ thá»‹t quay","location":{"city":"Ben Luc","latitude":10.633651704136,"longitude":106.51609809802,"street":"47 QUá»C Lá»˜ 1A LONG HIá»†P"},"phone":"0922940377"},"id":"386656718498374"},{"name":"Tatoo Shop Hiáº¿u Äáº§u LÃ¢u","checkins":19,"page":{"id":"2068966996765394","name":"Tatoo Shop Hiáº¿u Äáº§u LÃ¢u","link":"https://www.facebook.com/2068966996765394","location":{"city":"Can Giuoc","latitude":10.6167,"longitude":106.667}},"id":"2068967003432060"},{"name":"CÃ´ng Ty TNHH Äáº§u TÆ° XÃ¢y Dá»±ng Sáº£n Xuáº¥t VÄ©nh PhÃ¡t","checkins":0,"page":{"id":"514723342193635","name":"CÃ´ng Ty TNHH Äáº§u TÆ° XÃ¢y Dá»±ng Sáº£n Xuáº¥t VÄ©nh PhÃ¡t","link":"https://www.facebook.com/514723342193635","location":{"city":"Can Giuoc","latitude":10.6167,"longitude":106.667,"street":"Sá»‘ 47A, ÄÆ°á»ng HÆ°Æ¡ng Lá»™ 20, áº¥p PhÆ°á»›c Káº¿, xÃ£ PhÆ°á»›c LÃ¢m"},"phone":"0919933878"},"id":"514723378860298"},{"name":"Äáº¥t Ná»n Äáº§u TÆ° GiÃ¡ Tá»‘t","checkins":0,"page":{"id":"108136789872306","name":"Äáº¥t Ná»n Äáº§u TÆ° GiÃ¡ Tá»‘t","link":"https://www.facebook.com/108136789872306","about":"GIáº¢I PHÃP Äáº¦U TÆ¯ - AN CÆ¯ Láº¬P NGHIá»†P","location":{"city":"Ho Chi Minh City","latitude":10.629093074174,"longitude":106.66144765324,"street":"52 VÃµ LiÃªm SÆ¡n, PhÆ°á»ng 4 ,Quáº­n 8, TPHCM"},"phone":"+84352888893"},"id":"161133444572640"},{"name":"Tatoo Shop Hiáº¿u Äáº§u LÃ¢u","checkins":19,"page":{"id":"2068966996765394","name":"Tatoo Shop Hiáº¿u Äáº§u LÃ¢u","link":"https://www.facebook.com/2068966996765394","location":{"city":"Can Giuoc","latitude":10.6167,"longitude":106.667}},"id":"2068967003432060"},{"name":"CÃ´ng Ty TNHH Äáº§u TÆ° XÃ¢y Dá»±ng Sáº£n Xuáº¥t VÄ©nh PhÃ¡t","checkins":0,"page":{"id":"514723342193635","name":"CÃ´ng Ty TNHH Äáº§u TÆ° XÃ¢y Dá»±ng Sáº£n Xuáº¥t VÄ©nh PhÃ¡t","link":"https://www.facebook.com/514723342193635","location":{"city":"Can Giuoc","latitude":10.6167,"longitude":106.667,"street":"Sá»‘ 47A, ÄÆ°á»ng HÆ°Æ¡ng Lá»™ 20, áº¥p PhÆ°á»›c Káº¿, xÃ£ PhÆ°á»›c LÃ¢m"},"phone":"0919933878"},"id":"514723378860298"},{"name":"TÆ° Váº¥n  Äáº§u TÆ° Äáº¥t Ná»n  Khu Nam SÃ i GÃ²n","checkins":0,"page":{"id":"138124193405890","name":"TÆ° Váº¥n  Äáº§u TÆ° Äáº¥t Ná»n  Khu Nam SÃ i GÃ²n","link":"https://www.facebook.com/138124193405890","about":"Kinh doanh, tÆ° váº¥n,kÃ½ gá»­i Báº¥t Äá»™ng Sáº£n","location":{"latitude":10.628402166284,"longitude":106.72432077338},"phone":"+84936777960"},"id":"637443763473928"},{"name":"Chá»§ Äáº§u TÆ° Dá»± Ãn Äáº¥t Ná»n South Riverside NhÃ  BÃ¨ ÄÆ°á»ng Nguyá»…n VÄƒn Táº¡o","checkins":0,"page":{"id":"2214840828792709","name":"Chá»§ Äáº§u TÆ° Dá»± Ãn Äáº¥t Ná»n South Riverside NhÃ  BÃ¨ ÄÆ°á»ng Nguyá»…n VÄƒn Táº¡o","link":"https://www.facebook.com/2214840828792709","location":{"city":"Ho Chi Minh City","latitude":10.62602,"longitude":106.73721,"street":"906 Nguyá»…n VÄƒn Táº¡o NhÃ  BÃ¨"},"phone":"+84 90 909 27 86"},"id":"2214841208792671"},{"name":"Ahihi - á»¨ng dá»¥ng giáº£i trÃ­ hÃ ng Ä‘áº§u Viá»‡t Nam","checkins":11,"website":"https://vnvv.vn/","page":{"id":"1106394829492105","name":"Ahihi - á»¨ng dá»¥ng giáº£i trÃ­ hÃ ng Ä‘áº§u Viá»‡t Nam","link":"https://www.facebook.com/1106394829492105","about":"Ahihi - á»¨ng dá»¥ng giáº£i trÃ­ hÃ ng Ä‘áº§u Viá»‡t Nam dÃ nh cho giá»›i tráº» Viá»‡t Nam. HÃ£y tráº£i nghiá»‡m nhá»¯ng khoáº£nh kháº¯c \"HÃ i báº¥t táº­n\" cÃ¹ng Ahihi nÃ o\n\n\n\n","location":{"city":"Ho Chi Minh City","latitude":10.609319284132,"longitude":106.73543930054,"street":"11 ÄoÃ n VÄƒn BÆ¡"},"phone":"028 3636 2391"},"id":"1466665466798371"},{"name":"ÄÃ¢Ì€u TÆ° ThÃ´ng Minh","checkins":0,"page":{"id":"108267957558184","name":"ÄÃ¢Ì€u TÆ° ThÃ´ng Minh","link":"https://www.facebook.com/108267957558184","about":"HaÌƒy Ä‘Ã¢Ì€u tÆ° bÃ¢Ìt Ä‘Ã´Ì£ng saÌ‰n theo xu thÃªÌ, khaÌm phaÌ caÌi mÆ¡Ìi vÆ¡Ìi tinh thÃ¢Ì€n khÆ¡Ì‰i nghiÃªÌ£p.","location":{"latitude":10.611381689486,"longitude":106.75675641228,"street":"BÃ¹i Minh Trá»±c"},"phone":"+84337187211"},"id":"108275580890755"},{"name":"Chá»§ Äáº§u TÆ° Dá»± Ãn Äáº¥t Ná»n South Riverside NhÃ  BÃ¨ ÄÆ°á»ng Nguyá»…n VÄƒn Táº¡o","checkins":0,"page":{"id":"2214840828792709","name":"Chá»§ Äáº§u TÆ° Dá»± Ãn Äáº¥t Ná»n South Riverside NhÃ  BÃ¨ ÄÆ°á»ng Nguyá»…n VÄƒn Táº¡o","link":"https://www.facebook.com/2214840828792709","location":{"city":"Ho Chi Minh City","latitude":10.62602,"longitude":106.73721,"street":"906 Nguyá»…n VÄƒn Táº¡o NhÃ  BÃ¨"},"phone":"+84 90 909 27 86"},"id":"2214841208792671"},{"name":"CÃ´ng Ty Cá»• Pháº§n CÆ¡ KhÃ­ VÃ  Äáº§u TÆ° NgÃ´i Sao","checkins":12,"page":{"id":"1667112193597006","name":"CÃ´ng Ty Cá»• Pháº§n CÆ¡ KhÃ­ VÃ  Äáº§u TÆ° NgÃ´i Sao","link":"https://www.facebook.com/1667112193597006","location":{"city":"Ho Chi Minh City","latitude":10.63173,"longitude":106.75897,"street":"ÄÆ¯á»œNG Sá»‘ 16"},"phone":"+84 8 3781 8999"},"id":"1667112200263672"},{"name":"ÄÃ¢Ì€u TÆ° ThÃ´ng Minh","checkins":0,"page":{"id":"108267957558184","name":"ÄÃ¢Ì€u TÆ° ThÃ´ng Minh","link":"https://www.facebook.com/108267957558184","about":"HaÌƒy Ä‘Ã¢Ì€u tÆ° bÃ¢Ìt Ä‘Ã´Ì£ng saÌ‰n theo xu thÃªÌ, khaÌm phaÌ caÌi mÆ¡Ìi vÆ¡Ìi tinh thÃ¢Ì€n khÆ¡Ì‰i nghiÃªÌ£p.","location":{"latitude":10.611381689486,"longitude":106.75675641228,"street":"BÃ¹i Minh Trá»±c"},"phone":"+84337187211"},"id":"108275580890755"},{"name":"Äáº§u TÆ° NuÃ´i Trá»“ng Thá»§y Sáº£n PhÆ°Æ¡ng Mai","checkins":3,"page":{"id":"161281004397370","name":"Äáº§u TÆ° NuÃ´i Trá»“ng Thá»§y Sáº£n PhÆ°Æ¡ng Mai","link":"https://www.facebook.com/161281004397370","location":{"city":"Ho Chi Minh City","latitude":10.63088,"longitude":106.79646,"street":"ÄÆ¯á»œNG Rá»«ng SÃ¡c"}},"id":"161281011064036"}]