[{"name":"Kem massage tan m·ª° Ng√¢n B√¨nh","checkins":0,"page":{"id":"183241465793859","name":"Kem massage tan m·ª° Ng√¢n B√¨nh","link":"https://www.facebook.com/183241465793859","location":{"city":"T√¢n Ph√∫ Trung","latitude":10.98282,"longitude":106.54823,"street":"Huy·ªán c·ªß Chi"},"phone":"01638821598"},"id":"300298014088203"},{"name":"C·ªìn Xoa B√≥p ƒêa D·ª•ng An Tri·ªáu 0969885505","checkins":2,"page":{"id":"1529341943826718","name":"C·ªìn Xoa B√≥p ƒêa D·ª•ng An Tri·ªáu 0969885505","link":"https://www.facebook.com/1529341943826718","about":"Cung c·∫•p s·ªâ l·∫ª D·∫ßu Xoa B√≥p An Tri·ªáu GI√Å R·∫∫: Ch·ªØa ƒëau nh·ª©c x∆∞∆°ng kh·ªõp, ch√¢n tay t√™ lanh, t√© ng√£, bong g√¢n, b·∫ßm t√≠m, ƒëau ƒë·∫ßu ngh·∫πt m≈©i..\nLH 0969885505","location":{"city":"Ho Chi Minh City","latitude":10.98282,"longitude":106.54823,"street":"C√¥ng ty TNHH ƒê√¥ng y d∆∞·ª£c An Tri·ªáu, KCN T√¢n Ph√∫ Trung, huy·ªán C·ªß Chi"},"phone":"+84969885505"},"id":"1710116309082613"},{"name":"B√°n gh·∫ø massage t·∫°i B√¨nh D∆∞∆°ng, B√¨nh Ph∆∞·ªõc, T√¢y Ninh","checkins":0,"website":"https://www.thethaodaiviet.vn/ghe-massage-toan-than.html","page":{"id":"306967786455275","name":"B√°n gh·∫ø massage t·∫°i B√¨nh D∆∞∆°ng, B√¨nh Ph∆∞·ªõc, T√¢y Ninh","link":"https://www.facebook.com/306967786455275","about":"C·ª≠a h√†ng b√°n gh·∫ø massage t·∫°i B√¨nh D∆∞∆°ng, B√¨nh Ph∆∞·ªõc, T√¢y Ninh v·ªõi nhi·ªÅu s·∫£n ph·∫©m gh·∫ø m√°t xa to√†n th√¢n cao c·∫•p,ch√≠nh h√£ng, b·∫£o h√†nh d√†i h·∫°n l√™n t·ªõi 5-6 nƒÉm\n","location":{"city":"Thu Dau Mot","latitude":10.98045,"longitude":106.64974,"street":"B·∫°ch ƒê·∫±ng, Th√†nh ph·ªë Th·ªß D·∫ßu M·ªôt, T·ªânh B√¨nh D∆∞∆°ng"},"phone":"094 869 8330"},"id":"306967826455271"},{"name":"Masage Khi·∫øm Th·ªã ƒê·ª©c T√†i","checkins":1,"page":{"id":"105438377624246","name":"Masage Khi·∫øm Th·ªã ƒê·ª©c T√†i","link":"https://www.facebook.com/105438377624246","about":"Ph·ª•c h·ªìi s·ª©c kho·∫ª\n","location":{"city":"Thu Dau Mot","latitude":10.97692,"longitude":106.65252,"street":"441 L√Ω Th∆∞·ªùng Ki·ªát Dƒ© An B√¨nh D∆∞∆°ng"},"phone":"+84908996909"},"id":"105438540957563"},{"name":"Gh·∫ø Massage Ch√≠nh H√£ng KLC","checkins":28,"page":{"id":"102013184964200","name":"Gh·∫ø Massage Ch√≠nh H√£ng KLC","link":"https://www.facebook.com/102013184964200","about":"Fanpage ch√≠nh th·ª©c c·ªßa Gh·∫ø Massage ch√≠nh h√£ng KLC chi nh√°nh Th·ªß D·∫ßu M·ªôt, t·ªânh B√¨nh D∆∞∆°ng ","location":{"city":"Thu Dau Mot","latitude":10.98084,"longitude":106.66712,"street":"396 ƒê∆∞·ªùng CMT8, P. Ph√∫ C∆∞·ªùng, Tp. Th·ªß D·∫ßu M·ªôt, B√¨nh D∆∞∆°ng"},"phone":"+84382535353"},"id":"102013234964195"},{"name":"Foot Massage BIÃÄNH D∆Ø∆†NG","checkins":31,"website":"http://lasieusieu.com","page":{"id":"177926259292280","name":"Foot Massage BIÃÄNH D∆Ø∆†NG","link":"https://www.facebook.com/177926259292280","about":"Gi·∫£m stress sau nh·ªØng gi·ªù l√†m vi·ªác cƒÉng th·∫≥ng b·∫±ng ph∆∞∆°ng ph√°p ·∫•n huy·ªát s√¢u b√†n ch√¢n v√† c∆° th·ªÉ, lu√¥n mang ƒë·∫øn d·ªãch v·ª• massage t·ªët nh·∫•t  0989339947","location":{"city":"Thu Dau Mot","latitude":10.978352752482,"longitude":106.65512859821,"street":"24 h√πng v∆∞∆°ng, ph∆∞·ªùng ph√∫ c∆∞·ªùng"}},"id":"178370125914560"},{"name":"Massage Y·∫øn Vy","checkins":0,"page":{"id":"111678750277782","name":"Massage Y·∫øn Vy","link":"https://www.facebook.com/111678750277782","location":{"city":"Thu Dau Mot","latitude":10.981,"longitude":106.654,"street":"60 ƒê∆∞·ªùng t·ªânh 743, ph∆∞·ªùng An Ph√∫, th·ªã x√£ Thu·∫≠n An, B√¨nh D∆∞∆°ng."}},"id":"111678956944428"},{"name":"Gh·∫ø massage ch√≠nh h√£ng Kazuko B√¨nh D∆∞∆°ng","checkins":98,"website":"Kazuko.vn","page":{"id":"108980134230446","name":"Gh·∫ø massage ch√≠nh h√£ng Kazuko B√¨nh D∆∞∆°ng","link":"https://www.facebook.com/108980134230446","about":"Gh·∫ø massage Kazuko ch√≠nh h√£ng, mi·ªÖn ph√≠ giao h√†ng v√† b·∫£o h√†nh to√†n qu·ªëc!","location":{"city":"Thu Dau Mot","latitude":10.984483193943,"longitude":106.6672894115,"street":"S·ªë 01 ƒê∆∞·ªùng Ph√∫ L·ª£i - Ph∆∞·ªùng Ph√∫ L·ª£i - TP.Th·ªß ƒê·∫ßu M·ªôt - B√¨nh D∆∞∆°ng (Ng√£ 4 ch·ª£ ƒë√¨nh)"},"phone":"0395.00.55.22"},"id":"108980340897092"},{"name":"Gh·∫ø massage Osanno - B√¨nh D∆∞∆°ng","checkins":7,"website":"OSANNO.VN","page":{"id":"100583891601449","name":"Gh·∫ø massage Osanno - B√¨nh D∆∞∆°ng","link":"https://www.facebook.com/100583891601449","about":"Osanno B√¨nh D∆∞∆°ng v·ªõi s·∫£n ph·∫©m gh·∫ø massage to√†n th√¢n v√¥ c√πng ch·∫•t l∆∞·ª£ng, ph√π h·ª£p v·ªõi t·∫•t c·∫£ ng∆∞·ªùi d√πng.","location":{"city":"Thu Dau Mot","latitude":10.9775484,"longitude":106.6659524,"street":"147 Th√≠ch Qu·∫£ng ƒê·ª©c"},"phone":"+84889446447"},"id":"115992616727243"},{"name":"Massage Thi√™n L·∫°c","checkins":0,"page":{"id":"103453228045167","name":"Massage Thi√™n L·∫°c","link":"https://www.facebook.com/103453228045167","location":{"city":"Thu Dau Mot","latitude":10.97357,"longitude":106.66511,"street":"101 Tr·∫ßn Ph√∫, Ph∆∞·ªùng Ch√°nh Nghƒ©a"},"phone":"0944292522"},"id":"103453571378466"},{"name":"Xoa B√≥p ·∫§n Huy·ªát - Massage Tr·ªã Li·ªáu Minh H√≤a","checkins":28,"page":{"id":"469904687076282","name":"Xoa B√≥p ·∫§n Huy·ªát - Massage Tr·ªã Li·ªáu Minh H√≤a","link":"https://www.facebook.com/469904687076282","location":{"city":"Thu Dau Mot","latitude":10.981,"longitude":106.6536,"street":"151 ƒê∆∞·ªùng ƒê·ªìng C√¢y Vi·∫øt , Ph∆∞·ªùng Ph√∫ M·ªπ , Tp. Th·ªß D·∫ßu M·ªôt , B√¨nh D∆∞∆°ng"}},"id":"469904690409615"},{"name":"Massage H·ªôi Ng∆∞·ªùi M√π Thanh H√≤a","checkins":0,"page":{"id":"245065949309682","name":"Massage H·ªôi Ng∆∞·ªùi M√π Thanh H√≤a","link":"https://www.facebook.com/245065949309682","location":{"city":"Thu Dau Mot","latitude":10.9795868,"longitude":106.6694364,"street":"ƒê∆Ø·ªúNG Th√≠ch Qu·∫£ng ƒê·ª©c"}},"id":"245065955976348"},{"name":"Massage Thanh Vy","checkins":0,"page":{"id":"102650971192604","name":"Massage Thanh Vy","link":"https://www.facebook.com/102650971192604","location":{"city":"Thu Dau Mot","latitude":10.9793054,"longitude":106.6677058,"street":"411/13B, Khu Ph·ªë ƒê√¥ng Chi√™u, Ph∆∞·ªùngT√¢n ƒê√¥ng Hi·ªáp, TX Dƒ© An, B√¨nh D∆∞∆°ng"}},"id":"102651101192591"},{"name":"Massage Song H·ª∑","checkins":5,"page":{"id":"1552510821514446","name":"Massage Song H·ª∑","link":"https://www.facebook.com/1552510821514446","about":"Massage Song H·ª∑ c·∫ßn tuy·ªÉn :\nN·ªØ 18 tu·ªïi tr·ªü l√™n\nNam 18 tu·ªïi tr·ªü l√™n\nLi√™n h·ªá:Messeger\n","location":{"city":"Thu Dau Mot","latitude":10.98431,"longitude":106.66619},"phone":"0976277287"},"id":"1552568268175368"},{"name":"Massage L·∫°c Vi√™n","checkins":0,"page":{"id":"101682594612643","name":"Massage L·∫°c Vi√™n","link":"https://www.facebook.com/101682594612643","about":"Massage L·∫°c Vi√™n cung c·∫•p d·ªãch v·ª• m√°t xa th∆∞ gi√£n, ph·ª•c h·ªìi s·ª©c kh·ªèe, tƒÉng c∆∞·ªùng sinh kh√≠, b·∫£n lƒ©nh ƒë√†n √¥ng.","location":{"city":"Thu Dau Mot","latitude":10.97555,"longitude":106.66973,"street":"M·ªπ Ph∆∞·ªõc III"}},"id":"101682734612629"},{"name":"Gh·∫ø massage Fuji Luxury ch√≠nh h√£ng- NICK MCR B√¨nh D∆∞∆°ng","checkins":6,"page":{"id":"100674368382949","name":"Gh·∫ø massage Fuji Luxury ch√≠nh h√£ng- NICK MCR B√¨nh D∆∞∆°ng","link":"https://www.facebook.com/100674368382949","about":"SR1: S·ªë 417 ƒê·∫°i L·ªô B√¨nh D∆∞∆°ng - Th·ªß D·∫ßu M·ªôt - B√¨nh D∆∞∆°ng \nSR2: L·∫ßu 3 VinCom Dƒ© An -3 DT 743 - T√¢n ƒê√¥ng Hi·ªáp - TP Dƒ© An - B√¨nh D∆∞∆°ng","location":{"city":"Thu Dau Mot","latitude":10.979448129392,"longitude":106.66754722595,"street":"417 ƒê·∫°i l·ªô B√¨nh D∆∞∆°ng, P. Ph√∫ C∆∞·ªùng"},"phone":"+84888179886"},"id":"100676561716063"},{"name":"Anh ƒê·ª©c Spa & Massage","checkins":4,"page":{"id":"436162670246205","name":"Anh ƒê·ª©c Spa & Massage","link":"https://www.facebook.com/436162670246205","about":"ƒê·∫øn Massage & Spa Anh ƒê·ª©c ƒë·ªÉ c·∫£m nh·∫≠n s·ª± kh√°c bi·ªát t·ª´ nh·ªØng b√†i thu·ªëc l√° t·∫Øm c·ªßa ng∆∞·ªùi Dao ƒë·ªè Sapa","location":{"city":"Thu Dau Mot","latitude":10.9753399,"longitude":106.66512,"street":"219 Ho√†ng VƒÉn Th·ª•"},"phone":"+84 90 194 03 73"},"id":"436163006912838"},{"name":"Gh·∫ø Massage ASAMA - B√¨nh D∆∞∆°ng","checkins":0,"website":" www.asama-chair.com","page":{"id":"107742074043580","name":"Gh·∫ø Massage ASAMA - B√¨nh D∆∞∆°ng","link":"https://www.facebook.com/107742074043580","about":"Massage Chair Asama","location":{"city":"Thu Dau Mot","latitude":10.976330507514,"longitude":106.66428565979,"street":"214 Th√≠ch Qu·∫£ng ƒê·ª©c, Th√†nh Ph·ªë Th·ªß D·∫ßu 1,"},"phone":"+84944556557"},"id":"107742227376898"},{"name":"Hotel Massage Anh ƒê·ª©c","checkins":3,"page":{"id":"345711729128115","name":"Hotel Massage Anh ƒê·ª©c","link":"https://www.facebook.com/345711729128115","about":"Ch·∫•t l∆∞·ª£ng ph·ª•c v·ª• uy t√≠n - chuy√™n nghi·ªáp","location":{"city":"Thu Dau Mot","latitude":10.97095,"longitude":106.66677,"street":"219 Ho√†ng VƒÉn Th·ª•, ph∆∞·ªùng Ch√°nh Nghƒ©a"},"phone":"06503800321"},"id":"346995308999757"},{"name":"Hotel_spa Anh ƒê·ª©c","checkins":154,"page":{"id":"300385620392849","name":"Hotel_spa Anh ƒê·ª©c","link":"https://www.facebook.com/300385620392849","about":"Hotel & Spa Anh ƒê·ª©c v·ªõi ƒë·ªôi ng≈© k·ªπ thu·∫≠t vi√™n chuy√™n nghi·ªáp, lu√¥n mang ƒë·∫øn c·∫£m gi√°c tho·∫£i m√°i v√† h√†i l√≤ng nh·∫•t ƒë·∫øn cho kh√°ch h√†ng","location":{"city":"Thu Dau Mot","latitude":10.970968242,"longitude":106.666825544,"street":"219 Ho√†ng VƒÉn Th·ª•, KDC.Ch√°nh Nghƒ©a,"},"phone":"+84 90 886 84 85"},"id":"300385733726171"},{"name":"Massage khi·∫øm th·ªã Nh∆∞ √ù","checkins":0,"website":"http://massagekhiemthinhuy.com","page":{"id":"1761535224104215","name":"Massage khi·∫øm th·ªã Nh∆∞ √ù","link":"https://www.facebook.com/1761535224104215","about":"C∆° s·ªü massage khi·∫øm th·ªã Nh∆∞ √ù do anh em ng∆∞·ªùi khi·∫øm th·ªã ph·ª•c v·ª• mong ƒë∆∞·ª£c gi√∫p ƒë·ª°","location":{"city":"Thu Dau Mot","latitude":10.9920684,"longitude":106.6534561,"street":"38/7/2/1, Hu·ª≥nh VƒÉn C√π, ph∆∞·ªùng Hi·ªáp Th√†nh"},"phone":"0949 49 31 58"},"id":"1761535260770878"},{"name":"Masage Khi·∫øm Th·ªã ƒê·ª©c T√†i","checkins":1,"page":{"id":"105438377624246","name":"Masage Khi·∫øm Th·ªã ƒê·ª©c T√†i","link":"https://www.facebook.com/105438377624246","about":"Ph·ª•c h·ªìi s·ª©c kho·∫ª\n","location":{"city":"Thu Dau Mot","latitude":10.97692,"longitude":106.65252,"street":"441 L√Ω Th∆∞·ªùng Ki·ªát Dƒ© An B√¨nh D∆∞∆°ng"},"phone":"+84908996909"},"id":"105438540957563"},{"name":"B√°n gh·∫ø massage t·∫°i B√¨nh D∆∞∆°ng, B√¨nh Ph∆∞·ªõc, T√¢y Ninh","checkins":0,"website":"https://www.thethaodaiviet.vn/ghe-massage-toan-than.html","page":{"id":"306967786455275","name":"B√°n gh·∫ø massage t·∫°i B√¨nh D∆∞∆°ng, B√¨nh Ph∆∞·ªõc, T√¢y Ninh","link":"https://www.facebook.com/306967786455275","about":"C·ª≠a h√†ng b√°n gh·∫ø massage t·∫°i B√¨nh D∆∞∆°ng, B√¨nh Ph∆∞·ªõc, T√¢y Ninh v·ªõi nhi·ªÅu s·∫£n ph·∫©m gh·∫ø m√°t xa to√†n th√¢n cao c·∫•p,ch√≠nh h√£ng, b·∫£o h√†nh d√†i h·∫°n l√™n t·ªõi 5-6 nƒÉm\n","location":{"city":"Thu Dau Mot","latitude":10.98045,"longitude":106.64974,"street":"B·∫°ch ƒê·∫±ng, Th√†nh ph·ªë Th·ªß D·∫ßu M·ªôt, T·ªânh B√¨nh D∆∞∆°ng"},"phone":"094 869 8330"},"id":"306967826455271"},{"name":"B√°n m√°y ch·∫°y b·ªô, xe ƒë·∫°p t·∫≠p, gh·∫ø massage to√†n th√¢n t·∫°i B√¨nh D∆∞∆°ng","checkins":1,"website":"https://dinhvu.vn/","page":{"id":"452103842026344","name":"B√°n m√°y ch·∫°y b·ªô, xe ƒë·∫°p t·∫≠p, gh·∫ø massage to√†n th√¢n t·∫°i B√¨nh D∆∞∆°ng","link":"https://www.facebook.com/452103842026344","about":"Cung c·∫•p m√°y t·∫≠p th·ªÉ d·ª•c, m√°y ch·∫°y b·ªô, xe ƒë·∫°p t·∫≠p th·ªÉ d·ª•c, gi√†n t·∫° ƒëa nƒÉng, gh·∫ø ƒë·∫©y t·∫°, gh·∫ø massage to√†n th√¢n, m√°y t·∫≠p b·ª•ng gi√° t·ªët nh·∫•t t·∫°i B√¨nh  D∆∞∆°ng.","location":{"city":"Thu Dau Mot","latitude":10.987789712554,"longitude":106.66541218758,"street":"12 Ho√†ng Hoa Th√°m, Ph∆∞·ªùng Ph√∫ L·ª£i"},"phone":"+84925815518"},"id":"452104005359661"},{"name":"ƒê√¨nh V≈© - B√°n Gh·∫ø Massage To√†n Th√¢n T·∫°i Thu·∫≠n An, B√¨nh D∆∞∆°ng","checkins":0,"website":"https://dinhvu.vn/","page":{"id":"114463130242689","name":"ƒê√¨nh V≈© - B√°n Gh·∫ø Massage To√†n Th√¢n T·∫°i Thu·∫≠n An, B√¨nh D∆∞∆°ng","link":"https://www.facebook.com/114463130242689","location":{"city":"Thu Dau Mot","latitude":10.9837799,"longitude":106.6672663,"street":"12 Ho√†ng Hoa Th√°m, Ph√∫ L·ª£i"},"phone":"0925815518"},"id":"114463316909337"},{"name":"ƒê√¨nh V≈© - B√°n Gh·∫ø Massage To√†n Th√¢n T·∫°i B√¨nh D∆∞∆°ng","checkins":0,"website":"https://dinhvu.vn/","page":{"id":"5560723690641442","name":"ƒê√¨nh V≈© - B√°n Gh·∫ø Massage To√†n Th√¢n T·∫°i B√¨nh D∆∞∆°ng","link":"https://www.facebook.com/5560723690641442","about":"Cung c·∫•p m√°y t·∫≠p th·ªÉ d·ª•c, m√°y ch·∫°y b·ªô, xe ƒë·∫°p t·∫≠p th·ªÉ d·ª•c, gi√†n t·∫° ƒëa nƒÉng, gh·∫ø ƒë·∫©y t·∫°, gh·∫ø massage to√†n th√¢n, m√°y t·∫≠p b·ª•ng gi√° t·ªët nh·∫•t t·∫°i B√¨nh  D∆∞∆°ng.","location":{"city":"Thu Dau Mot","latitude":10.987916098365,"longitude":106.66548728943,"street":"12 Ho√†ng Hoa Th√°m, Ph∆∞·ªùng Ph√∫ L·ª£i"},"phone":"+84925815518"},"id":"5560724143974730"},{"name":"Cao Massage ƒêa NƒÉng AYOFA RELAX","checkins":0,"page":{"id":"271064673491733","name":"Cao Massage ƒêa NƒÉng AYOFA RELAX","link":"https://www.facebook.com/271064673491733","about":"S·ªëng l√† cho ƒë√¢u ch·ªâ nh·∫≠n ri√™ng m√¨nh.\nH√£y ∆∞·ªõc m∆° h√£y khao kh√°t v√† ƒë·ª´ng kh·ªù d·∫°i..","location":{"city":"Thu Dau Mot","latitude":10.98431,"longitude":106.66619,"street":"B√¨nh d∆∞∆°ng"},"phone":"+84345072914"},"id":"271249443473256"},{"name":"DaÃ£y hoÃ£c ngh√™ÃÄ chƒÉm soÃÅc da Spa massage taÃ£i BiÃÄnh D∆∞∆°ng - Nga Beauty Spa","checkins":0,"website":"http://ngabeautyspa.com/dao-tao","page":{"id":"2163750460513575","name":"DaÃ£y hoÃ£c ngh√™ÃÄ chƒÉm soÃÅc da Spa massage taÃ£i BiÃÄnh D∆∞∆°ng - Nga Beauty Spa","link":"https://www.facebook.com/2163750460513575","about":"ƒê√†o ƒë·∫°o Spa c∆° b·∫£n, n√¢ng cao, chuy√™n s√¢u cho nh·ªØng h·ªçc vi√™n ch∆∞a c√≥ kinh nghi·ªám v·ªÅ ngh·ªÅ Spa l√†m ƒë·∫πp. V·ªõi gi√°o √°n thi·∫øt th·ª±c, ph√π h·ª£p v·ªõi xu h∆∞·ªõng th·ªùi ƒë·∫°i, b·∫°n s·∫Ω ƒë∆∞·ª£c h·ªçc nh·ªØng ki·∫øn th·ª©c nh","location":{"city":"Thu Dau Mot","latitude":10.97318652105,"longitude":106.66644752026},"phone":"0969. 33 18 98"},"id":"2163815143840440"},{"name":"B√¥ng T·∫©y Trang H·∫°t Massage - Cherry","checkins":4,"page":{"id":"1622355324706219","name":"B√¥ng T·∫©y Trang H·∫°t Massage - Cherry","link":"https://www.facebook.com/1622355324706219","about":"Chuy√™n s·ªâ v√† l·∫ª B√¥ng T·∫©y trang h·∫°t massage. S·∫£n ph·∫©m an to√†n cho da v·ªõi 100% b√¥ng x∆° t·ª± nhi√™n. B·ªÅ m·∫∑t c√≥ h·∫°t l·ªìi massage l·∫•y s·∫°ch c√°c b·ª•i b·∫©n s√¢u d∆∞·ªõi da, h·ªó tr·ª£ tr·ªã m·ª•n v√† l√†m s√°ng da.","location":{"city":"Ap Binh Duong (1)","latitude":10.97555,"longitude":106.66973,"street":"Th·ªß D·∫ßu M·ªôt"},"phone":"0933404858"},"id":"1623371541271264"},{"name":"Massage H·ªôi Ng∆∞·ªùi M√π T·ªânh B√¨nh D∆∞∆°ng","checkins":125,"page":{"id":"1868808243331839","name":"Massage H·ªôi Ng∆∞·ªùi M√π T·ªânh B√¨nh D∆∞∆°ng","link":"https://www.facebook.com/1868808243331839","location":{"city":"Thu Dau Mot","latitude":10.9736,"longitude":106.681999,"street":"445, L√™ H·ªìng Phong"},"phone":"0650 3827 897"},"id":"1868808249998505"},{"name":"Massage H·ªôi Ng∆∞·ªùi M√π","checkins":299,"page":{"id":"513920205315470","name":"Massage H·ªôi Ng∆∞·ªùi M√π","link":"https://www.facebook.com/513920205315470","location":{"city":"Thu Dau Mot","latitude":10.985042830827,"longitude":106.67436004012,"street":"L√™ Th·ªã Trung"},"phone":"+84 92 443 56 10"},"id":"513920218648802"},{"name":"Gh·∫ø Massage Cao C·∫•p Royal B√¨nh D∆∞∆°ng","checkins":12,"website":"thethaohoanggia.vn","page":{"id":"100148908536806","name":"Gh·∫ø Massage Cao C·∫•p Royal B√¨nh D∆∞∆°ng","link":"https://www.facebook.com/100148908536806","about":"ƒê·ªãa Ch·ªâ B√°n Gh·∫ø Massage Uy T√≠n Ch·∫•t L∆∞·ª£ng Nh·∫•t T·∫°i Th·ªã Tr∆∞·ªùng Vi·ªát Nam","location":{"city":"Thu Dau Mot","latitude":10.979664057894,"longitude":106.68060838001,"street":"332 L√™ H·ªìng Phong"},"phone":"+84979259697"},"id":"100153945202969"},{"name":"Gh·∫ø Massage Ch√≠nh H√£ng KLC","checkins":28,"page":{"id":"102013184964200","name":"Gh·∫ø Massage Ch√≠nh H√£ng KLC","link":"https://www.facebook.com/102013184964200","about":"Fanpage ch√≠nh th·ª©c c·ªßa Gh·∫ø Massage ch√≠nh h√£ng KLC chi nh√°nh Th·ªß D·∫ßu M·ªôt, t·ªânh B√¨nh D∆∞∆°ng ","location":{"city":"Thu Dau Mot","latitude":10.98084,"longitude":106.66712,"street":"396 ƒê∆∞·ªùng CMT8, P. Ph√∫ C∆∞·ªùng, Tp. Th·ªß D·∫ßu M·ªôt, B√¨nh D∆∞∆°ng"},"phone":"+84382535353"},"id":"102013234964195"},{"name":"Massage Thi√™n Thai","checkins":24,"page":{"id":"104248974516845","name":"Massage Thi√™n Thai","link":"https://www.facebook.com/104248974516845","about":"ÔøΩ H·ªá th·ªëng ÔøΩ& Massage Thi√™n Thai New c·ªßa ch√∫ng t√¥i lu√¥n lu√¥n ƒë·∫°o s·ª± m·ªõi m·∫ª,, ph·ª•c v·ª• ƒë·∫øn qu√Ω kh√°ch h√†ng... ƒê·ªôi ng≈© nh√¢n vi√™n c·ªßa ch√∫ng t√¥i ƒë√†o t·∫°o tay ngh·ªÅ r·∫•t nghi√™m ng·∫∑t b√†i b·∫£n.! ","location":{"city":"Thu Dau Mot","latitude":10.971819225395,"longitude":106.68224106431,"street":"534 L√™ H·ªìng Phong, Ph√∫ Ho√†, Th·ªß D·∫ßu M·ªôt"},"phone":"+84939999054"},"id":"104271114514631"},{"name":"Gh·∫ø massage ch√≠nh h√£ng Kazuko B√¨nh D∆∞∆°ng","checkins":98,"website":"Kazuko.vn","page":{"id":"108980134230446","name":"Gh·∫ø massage ch√≠nh h√£ng Kazuko B√¨nh D∆∞∆°ng","link":"https://www.facebook.com/108980134230446","about":"Gh·∫ø massage Kazuko ch√≠nh h√£ng, mi·ªÖn ph√≠ giao h√†ng v√† b·∫£o h√†nh to√†n qu·ªëc!","location":{"city":"Thu Dau Mot","latitude":10.984483193943,"longitude":106.6672894115,"street":"S·ªë 01 ƒê∆∞·ªùng Ph√∫ L·ª£i - Ph∆∞·ªùng Ph√∫ L·ª£i - TP.Th·ªß ƒê·∫ßu M·ªôt - B√¨nh D∆∞∆°ng (Ng√£ 4 ch·ª£ ƒë√¨nh)"},"phone":"0395.00.55.22"},"id":"108980340897092"},{"name":"Gh·∫ø Massage - B√°n Gh·∫ø Massage Fuji kashi Ch√≠nh H√£ng T·∫°i B√¨nh D∆∞∆°ng","checkins":12,"website":"https://thethaotaiphat.com.vn/ghe-massage/c84.html","page":{"id":"292175584889828","name":"Gh·∫ø Massage - B√°n Gh·∫ø Massage Fuji kashi Ch√≠nh H√£ng T·∫°i B√¨nh D∆∞∆°ng","link":"https://www.facebook.com/292175584889828","about":"Gh·∫ø massage to√†n th√¢n Fujikashi - mang ƒë·∫øn nh·ªØng gi√° tr·ªã s·ªëng ƒë√≠ch th·ª±c cho cu·ªôc s·ªëng hi·ªán ƒë·∫°i","location":{"city":"Thu Dau Mot","latitude":10.97135909646,"longitude":106.6708946228,"street":"226 ƒê∆∞·ªùng 30/4 Ph∆∞·ªùng Ch√°nh Nghƒ©a"},"phone":"0949893555"},"id":"292175621556491"},{"name":"Massage H·ªôi Ng∆∞·ªùi M√π Thanh H√≤a","checkins":0,"page":{"id":"245065949309682","name":"Massage H·ªôi Ng∆∞·ªùi M√π Thanh H√≤a","link":"https://www.facebook.com/245065949309682","location":{"city":"Thu Dau Mot","latitude":10.9795868,"longitude":106.6694364,"street":"ƒê∆Ø·ªúNG Th√≠ch Qu·∫£ng ƒê·ª©c"}},"id":"245065955976348"},{"name":"Gh·∫ø Massage Life Sport B√¨nh D∆∞∆°ng","checkins":22,"website":"https://nhatnguyen.com/","page":{"id":"108375547586710","name":"Gh·∫ø Massage Life Sport B√¨nh D∆∞∆°ng","link":"https://www.facebook.com/108375547586710","about":"Life sport B√¨nh D∆∞∆°ng l√† ƒë∆°n v·ªã chuy√™n cung c·∫•p c√°c d√≤ng gh·∫ø massage ch√≠nh h√£ng nh∆∞ Lifesport,BH, uy t√≠n v√† ch·∫•t l∆∞·ª£ng","location":{"city":"Thu Dau Mot","latitude":10.969884509303,"longitude":106.67044401169,"street":"262 ƒê∆∞·ªùng 30/4 (ƒê·ªëi di·ªán s√¢n b√≥ng G√≤ ƒê·∫≠u)"},"phone":"+84941239269"},"id":"108375707586694"},{"name":"Massage L·∫°c Vi√™n","checkins":0,"page":{"id":"101682594612643","name":"Massage L·∫°c Vi√™n","link":"https://www.facebook.com/101682594612643","about":"Massage L·∫°c Vi√™n cung c·∫•p d·ªãch v·ª• m√°t xa th∆∞ gi√£n, ph·ª•c h·ªìi s·ª©c kh·ªèe, tƒÉng c∆∞·ªùng sinh kh√≠, b·∫£n lƒ©nh ƒë√†n √¥ng.","location":{"city":"Thu Dau Mot","latitude":10.97555,"longitude":106.66973,"street":"M·ªπ Ph∆∞·ªõc III"}},"id":"101682734612629"},{"name":"LYLY SPA Massage Foot","checkins":241,"page":{"id":"505671266465590","name":"LYLY SPA Massage Foot","link":"https://www.facebook.com/505671266465590","location":{"city":"Thu Dau Mot","latitude":10.974446003,"longitude":106.677714937,"street":"D1"}},"id":"505671273132256"},{"name":"Gh·∫ø massage Osanno - B√¨nh D∆∞∆°ng","checkins":7,"website":"OSANNO.VN","page":{"id":"100583891601449","name":"Gh·∫ø massage Osanno - B√¨nh D∆∞∆°ng","link":"https://www.facebook.com/100583891601449","about":"Osanno B√¨nh D∆∞∆°ng v·ªõi s·∫£n ph·∫©m gh·∫ø massage to√†n th√¢n v√¥ c√πng ch·∫•t l∆∞·ª£ng, ph√π h·ª£p v·ªõi t·∫•t c·∫£ ng∆∞·ªùi d√πng.","location":{"city":"Thu Dau Mot","latitude":10.9775484,"longitude":106.6659524,"street":"147 Th√≠ch Qu·∫£ng ƒê·ª©c"},"phone":"+84889446447"},"id":"115992616727243"},{"name":"Massage Thanh Vy","checkins":0,"page":{"id":"102650971192604","name":"Massage Thanh Vy","link":"https://www.facebook.com/102650971192604","location":{"city":"Thu Dau Mot","latitude":10.9793054,"longitude":106.6677058,"street":"411/13B, Khu Ph·ªë ƒê√¥ng Chi√™u, Ph∆∞·ªùngT√¢n ƒê√¥ng Hi·ªáp, TX Dƒ© An, B√¨nh D∆∞∆°ng"}},"id":"102651101192591"},{"name":"Nh√† h√†ng karaoke, massage Kim Ho√†ng","checkins":43,"page":{"id":"1843417682579343","name":"Nh√† h√†ng karaoke, massage Kim Ho√†ng","link":"https://www.facebook.com/1843417682579343","location":{"city":"Thu Dau Mot","latitude":10.97406229,"longitude":106.675915194,"street":"45, Tr·∫ßn VƒÉn ∆†n, Khu Ph·ªë 7"},"phone":"0650 3898 222"},"id":"1843417695912675"},{"name":"Gh·∫ø massage Fuji Luxury ch√≠nh h√£ng- NICK MCR B√¨nh D∆∞∆°ng","checkins":6,"page":{"id":"100674368382949","name":"Gh·∫ø massage Fuji Luxury ch√≠nh h√£ng- NICK MCR B√¨nh D∆∞∆°ng","link":"https://www.facebook.com/100674368382949","about":"SR1: S·ªë 417 ƒê·∫°i L·ªô B√¨nh D∆∞∆°ng - Th·ªß D·∫ßu M·ªôt - B√¨nh D∆∞∆°ng \nSR2: L·∫ßu 3 VinCom Dƒ© An -3 DT 743 - T√¢n ƒê√¥ng Hi·ªáp - TP Dƒ© An - B√¨nh D∆∞∆°ng","location":{"city":"Thu Dau Mot","latitude":10.979448129392,"longitude":106.66754722595,"street":"417 ƒê·∫°i l·ªô B√¨nh D∆∞∆°ng, P. Ph√∫ C∆∞·ªùng"},"phone":"+84888179886"},"id":"100676561716063"},{"name":"Massage Thi√™n L·∫°c","checkins":0,"page":{"id":"103453228045167","name":"Massage Thi√™n L·∫°c","link":"https://www.facebook.com/103453228045167","location":{"city":"Thu Dau Mot","latitude":10.97357,"longitude":106.66511,"street":"101 Tr·∫ßn Ph√∫, Ph∆∞·ªùng Ch√°nh Nghƒ©a"},"phone":"0944292522"},"id":"103453571378466"},{"name":"Vmax Massage","checkins":5,"website":"http://vmaxmassage.com/","page":{"id":"101175187911052","name":"Vmax Massage","link":"https://www.facebook.com/101175187911052","about":"Massage Vmax - 271A ƒê·∫°i l·ªô B√¨nh D∆∞∆°ng, Tp Th·ªß D·∫ßu M·ªôt, T·ªânh B√¨nh D∆∞∆°ng.\nƒê·∫≥ng c·∫•p - Sang tr·ªçng - L·ªãch s·ª± - Qu√Ω ph√°i.","location":{"city":"Thu Dau Mot","latitude":10.9724544993,"longitude":106.67095899582,"street":"271A ƒê·∫°i l·ªô B√¨nh D∆∞∆°ng"},"phone":"+842746531602"},"id":"108044430557461"},{"name":"Massage Song H·ª∑","checkins":5,"page":{"id":"1552510821514446","name":"Massage Song H·ª∑","link":"https://www.facebook.com/1552510821514446","about":"Massage Song H·ª∑ c·∫ßn tuy·ªÉn :\nN·ªØ 18 tu·ªïi tr·ªü l√™n\nNam 18 tu·ªïi tr·ªü l√™n\nLi√™n h·ªá:Messeger\n","location":{"city":"Thu Dau Mot","latitude":10.98431,"longitude":106.66619},"phone":"0976277287"},"id":"1552568268175368"},{"name":"Nh√† H√†ng-Karaoke-Massage Ph∆∞·ª£ng Ho√†ng","checkins":15,"page":{"id":"776122799214994","name":"Nh√† H√†ng-Karaoke-Massage Ph∆∞·ª£ng Ho√†ng","link":"https://www.facebook.com/776122799214994","location":{"city":"Thu Dau Mot","latitude":10.988708591,"longitude":106.670567858,"street":"ƒê∆Ø·ªúNG Hu·ª≥nh VƒÉn L≈©y"},"phone":"+84 650 3622 764"},"id":"776122805881660"},{"name":"Hotel Massage Anh ƒê·ª©c","checkins":3,"page":{"id":"345711729128115","name":"Hotel Massage Anh ƒê·ª©c","link":"https://www.facebook.com/345711729128115","about":"Ch·∫•t l∆∞·ª£ng ph·ª•c v·ª• uy t√≠n - chuy√™n nghi·ªáp","location":{"city":"Thu Dau Mot","latitude":10.97095,"longitude":106.66677,"street":"219 Ho√†ng VƒÉn Th·ª•, ph∆∞·ªùng Ch√°nh Nghƒ©a"},"phone":"06503800321"},"id":"346995308999757"},{"name":"Anh ƒê·ª©c Spa & Massage","checkins":4,"page":{"id":"436162670246205","name":"Anh ƒê·ª©c Spa & Massage","link":"https://www.facebook.com/436162670246205","about":"ƒê·∫øn Massage & Spa Anh ƒê·ª©c ƒë·ªÉ c·∫£m nh·∫≠n s·ª± kh√°c bi·ªát t·ª´ nh·ªØng b√†i thu·ªëc l√° t·∫Øm c·ªßa ng∆∞·ªùi Dao ƒë·ªè Sapa","location":{"city":"Thu Dau Mot","latitude":10.9753399,"longitude":106.66512,"street":"219 Ho√†ng VƒÉn Th·ª•"},"phone":"+84 90 194 03 73"},"id":"436163006912838"},{"name":"Hotel_spa Anh ƒê·ª©c","checkins":154,"page":{"id":"300385620392849","name":"Hotel_spa Anh ƒê·ª©c","link":"https://www.facebook.com/300385620392849","about":"Hotel & Spa Anh ƒê·ª©c v·ªõi ƒë·ªôi ng≈© k·ªπ thu·∫≠t vi√™n chuy√™n nghi·ªáp, lu√¥n mang ƒë·∫øn c·∫£m gi√°c tho·∫£i m√°i v√† h√†i l√≤ng nh·∫•t ƒë·∫øn cho kh√°ch h√†ng","location":{"city":"Thu Dau Mot","latitude":10.970968242,"longitude":106.666825544,"street":"219 Ho√†ng VƒÉn Th·ª•, KDC.Ch√°nh Nghƒ©a,"},"phone":"+84 90 886 84 85"},"id":"300385733726171"},{"name":"Gh·∫ø Massage Fuji kashi t·∫°i B√¨nh D∆∞∆°ng","checkins":1,"website":"https://thethaotaiphat.com.vn/ghe-massage.html","page":{"id":"571184086641676","name":"Gh·∫ø Massage Fuji kashi t·∫°i B√¨nh D∆∞∆°ng","link":"https://www.facebook.com/571184086641676","about":"Chuy√™n cung c·∫•p d√≤ng gh·∫ø massage Fuji Kashi Ch√≠nh h√£ng ƒë·ªôc quy·ªÅn t·∫°i th·ªã tr∆∞·ªùng vi·ªát nam.\nB·∫£o h√†nh 6 nƒÉm tr√™n to√†n qu·ªëc.\n","location":{"city":"Thu Dau Mot","latitude":10.971248502679,"longitude":106.67094290257,"street":"226 ƒê∆∞·ªùng 30/4 Ph∆∞·ªùng Ch√°nh Nghƒ©a"},"phone":"0949893555"},"id":"571200769973341"},{"name":"Gh·∫ø Massage ASAMA - B√¨nh D∆∞∆°ng","checkins":0,"website":" www.asama-chair.com","page":{"id":"107742074043580","name":"Gh·∫ø Massage ASAMA - B√¨nh D∆∞∆°ng","link":"https://www.facebook.com/107742074043580","about":"Massage Chair Asama","location":{"city":"Thu Dau Mot","latitude":10.976330507514,"longitude":106.66428565979,"street":"214 Th√≠ch Qu·∫£ng ƒê·ª©c, Th√†nh Ph·ªë Th·ªß D·∫ßu 1,"},"phone":"+84944556557"},"id":"107742227376898"},{"name":"B√°n m√°y ch·∫°y b·ªô, xe ƒë·∫°p t·∫≠p, gh·∫ø massage to√†n th√¢n t·∫°i B√¨nh D∆∞∆°ng","checkins":1,"website":"https://dinhvu.vn/","page":{"id":"452103842026344","name":"B√°n m√°y ch·∫°y b·ªô, xe ƒë·∫°p t·∫≠p, gh·∫ø massage to√†n th√¢n t·∫°i B√¨nh D∆∞∆°ng","link":"https://www.facebook.com/452103842026344","about":"Cung c·∫•p m√°y t·∫≠p th·ªÉ d·ª•c, m√°y ch·∫°y b·ªô, xe ƒë·∫°p t·∫≠p th·ªÉ d·ª•c, gi√†n t·∫° ƒëa nƒÉng, gh·∫ø ƒë·∫©y t·∫°, gh·∫ø massage to√†n th√¢n, m√°y t·∫≠p b·ª•ng gi√° t·ªët nh·∫•t t·∫°i B√¨nh  D∆∞∆°ng.","location":{"city":"Thu Dau Mot","latitude":10.987789712554,"longitude":106.66541218758,"street":"12 Ho√†ng Hoa Th√°m, Ph∆∞·ªùng Ph√∫ L·ª£i"},"phone":"+84925815518"},"id":"452104005359661"},{"name":"ƒê√¨nh V≈© - B√°n Gh·∫ø Massage To√†n Th√¢n T·∫°i Thu·∫≠n An, B√¨nh D∆∞∆°ng","checkins":0,"website":"https://dinhvu.vn/","page":{"id":"114463130242689","name":"ƒê√¨nh V≈© - B√°n Gh·∫ø Massage To√†n Th√¢n T·∫°i Thu·∫≠n An, B√¨nh D∆∞∆°ng","link":"https://www.facebook.com/114463130242689","location":{"city":"Thu Dau Mot","latitude":10.9837799,"longitude":106.6672663,"street":"12 Ho√†ng Hoa Th√°m, Ph√∫ L·ª£i"},"phone":"0925815518"},"id":"114463316909337"},{"name":"B√¥ng T·∫©y Trang H·∫°t Massage - Cherry","checkins":4,"page":{"id":"1622355324706219","name":"B√¥ng T·∫©y Trang H·∫°t Massage - Cherry","link":"https://www.facebook.com/1622355324706219","about":"Chuy√™n s·ªâ v√† l·∫ª B√¥ng T·∫©y trang h·∫°t massage. S·∫£n ph·∫©m an to√†n cho da v·ªõi 100% b√¥ng x∆° t·ª± nhi√™n. B·ªÅ m·∫∑t c√≥ h·∫°t l·ªìi massage l·∫•y s·∫°ch c√°c b·ª•i b·∫©n s√¢u d∆∞·ªõi da, h·ªó tr·ª£ tr·ªã m·ª•n v√† l√†m s√°ng da.","location":{"city":"Ap Binh Duong (1)","latitude":10.97555,"longitude":106.66973,"street":"Th·ªß D·∫ßu M·ªôt"},"phone":"0933404858"},"id":"1623371541271264"},{"name":"Cao Massage ƒêa NƒÉng AYOFA RELAX","checkins":0,"page":{"id":"271064673491733","name":"Cao Massage ƒêa NƒÉng AYOFA RELAX","link":"https://www.facebook.com/271064673491733","about":"S·ªëng l√† cho ƒë√¢u ch·ªâ nh·∫≠n ri√™ng m√¨nh.\nH√£y ∆∞·ªõc m∆° h√£y khao kh√°t v√† ƒë·ª´ng kh·ªù d·∫°i..","location":{"city":"Thu Dau Mot","latitude":10.98431,"longitude":106.66619,"street":"B√¨nh d∆∞∆°ng"},"phone":"+84345072914"},"id":"271249443473256"},{"name":"ƒê√¨nh V≈© - B√°n Gh·∫ø Massage To√†n Th√¢n T·∫°i B√¨nh D∆∞∆°ng","checkins":0,"website":"https://dinhvu.vn/","page":{"id":"5560723690641442","name":"ƒê√¨nh V≈© - B√°n Gh·∫ø Massage To√†n Th√¢n T·∫°i B√¨nh D∆∞∆°ng","link":"https://www.facebook.com/5560723690641442","about":"Cung c·∫•p m√°y t·∫≠p th·ªÉ d·ª•c, m√°y ch·∫°y b·ªô, xe ƒë·∫°p t·∫≠p th·ªÉ d·ª•c, gi√†n t·∫° ƒëa nƒÉng, gh·∫ø ƒë·∫©y t·∫°, gh·∫ø massage to√†n th√¢n, m√°y t·∫≠p b·ª•ng gi√° t·ªët nh·∫•t t·∫°i B√¨nh  D∆∞∆°ng.","location":{"city":"Thu Dau Mot","latitude":10.987916098365,"longitude":106.66548728943,"street":"12 Ho√†ng Hoa Th√°m, Ph∆∞·ªùng Ph√∫ L·ª£i"},"phone":"+84925815518"},"id":"5560724143974730"},{"name":"DaÃ£y hoÃ£c ngh√™ÃÄ chƒÉm soÃÅc da Spa massage taÃ£i BiÃÄnh D∆∞∆°ng - Nga Beauty Spa","checkins":0,"website":"http://ngabeautyspa.com/dao-tao","page":{"id":"2163750460513575","name":"DaÃ£y hoÃ£c ngh√™ÃÄ chƒÉm soÃÅc da Spa massage taÃ£i BiÃÄnh D∆∞∆°ng - Nga Beauty Spa","link":"https://www.facebook.com/2163750460513575","about":"ƒê√†o ƒë·∫°o Spa c∆° b·∫£n, n√¢ng cao, chuy√™n s√¢u cho nh·ªØng h·ªçc vi√™n ch∆∞a c√≥ kinh nghi·ªám v·ªÅ ngh·ªÅ Spa l√†m ƒë·∫πp. V·ªõi gi√°o √°n thi·∫øt th·ª±c, ph√π h·ª£p v·ªõi xu h∆∞·ªõng th·ªùi ƒë·∫°i, b·∫°n s·∫Ω ƒë∆∞·ª£c h·ªçc nh·ªØng ki·∫øn th·ª©c nh","location":{"city":"Thu Dau Mot","latitude":10.97318652105,"longitude":106.66644752026},"phone":"0969. 33 18 98"},"id":"2163815143840440"},{"name":"H·ªá th·ªëng Karaoke & Massage Royal","checkins":1,"website":"tuyendungkaraoke.com","page":{"id":"1769543756451563","name":"H·ªá th·ªëng Karaoke & Massage Royal","link":"https://www.facebook.com/1769543756451563","about":"D·ªäCH V·ª§ KARAOKE CAO C·∫§P v√† ph·ª•c v·ª• chuy√™n nghi·ªáp, t·∫≠n t√¢m s·∫Ω mang l·∫°i nh·ªØng ph√∫t gi√¢y th∆∞ gi√£n c≈©ng nh∆∞ k·ª∑ ni·ªám kh√≥ qu√™n ƒë·∫øn c√°c b·∫°n.\n","location":{"city":"Thu Dau Mot","latitude":10.971664545737,"longitude":106.68210625648,"street":"534 l√™ h·ªìng phong ph√∫ h√≤a th·ªß d·∫ßu b√¨nh duong"},"phone":"+84707310999"},"id":"1769543816451557"},{"name":"Massage H·ªôi Ng∆∞·ªùi M√π T·ªânh B√¨nh D∆∞∆°ng","checkins":125,"page":{"id":"1868808243331839","name":"Massage H·ªôi Ng∆∞·ªùi M√π T·ªânh B√¨nh D∆∞∆°ng","link":"https://www.facebook.com/1868808243331839","location":{"city":"Thu Dau Mot","latitude":10.9736,"longitude":106.681999,"street":"445, L√™ H·ªìng Phong"},"phone":"0650 3827 897"},"id":"1868808249998505"},{"name":"Gh·∫ø Massage Cao C·∫•p Royal B√¨nh D∆∞∆°ng","checkins":12,"website":"thethaohoanggia.vn","page":{"id":"100148908536806","name":"Gh·∫ø Massage Cao C·∫•p Royal B√¨nh D∆∞∆°ng","link":"https://www.facebook.com/100148908536806","about":"ƒê·ªãa Ch·ªâ B√°n Gh·∫ø Massage Uy T√≠n Ch·∫•t L∆∞·ª£ng Nh·∫•t T·∫°i Th·ªã Tr∆∞·ªùng Vi·ªát Nam","location":{"city":"Thu Dau Mot","latitude":10.979664057894,"longitude":106.68060838001,"street":"332 L√™ H·ªìng Phong"},"phone":"+84979259697"},"id":"100153945202969"},{"name":"Massage Khi·∫øm Th·ªã Nghƒ©a S∆∞∆°ng","checkins":0,"page":{"id":"104795004302958","name":"Massage Khi·∫øm Th·ªã Nghƒ©a S∆∞∆°ng","link":"https://www.facebook.com/104795004302958","about":"Chuy√™n Massage. Xoa B√≥p. C·∫°o Gi√≥. Gi·∫•c H∆°i.\nDo Nam&N·ªØ khi·∫øm th·ªã ph·ª•c v·ª•","location":{"latitude":10.975624435463,"longitude":106.68923564507,"street":"207 Nguy·ªÖn Th·ªã Minh Khai. ph∆∞·ªùng ph√∫ h√≤a. Th·ªß D·∫ßu M·ªôt. B√¨nh D∆∞∆°ng"},"phone":"+84907849988"},"id":"104801927635599"},{"name":"Massage Kieu Dung","checkins":14,"page":{"id":"475284259949796","name":"Massage Kieu Dung","link":"https://www.facebook.com/475284259949796","location":{"city":"Binh Chuan","latitude":10.9755671,"longitude":106.7418439}},"id":"475284263283129"},{"name":"Massage Kieu Dung","checkins":14,"page":{"id":"475284259949796","name":"Massage Kieu Dung","link":"https://www.facebook.com/475284259949796","location":{"city":"Binh Chuan","latitude":10.9755671,"longitude":106.7418439}},"id":"475284263283129"},{"name":"Massage B√¨nh B√¨nh An","checkins":0,"website":"http://Vananbinh.com","page":{"id":"164546561167411","name":"Massage B√¨nh B√¨nh An","link":"https://www.facebook.com/164546561167411","about":"massage kh·ªèe","location":{"city":"Ap Binh Duong (1)","latitude":10.98206,"longitude":106.7584,"street":"139 dt 743 khu ph·ªë t√¢n m·ªπ ph∆∞·ªùng th√°i h√≤a th·ªã x√£ t√¢n uy√™n b√¨nh d∆∞∆°ng"},"phone":"0785132043"},"id":"164546591167408"},{"name":"Tuy·ªÉn D·ª•ng Massage Relax Onl","checkins":1,"page":{"id":"100125411586196","name":"Tuy·ªÉn D·ª•ng Massage Relax Onl","link":"https://www.facebook.com/100125411586196","location":{"city":"T√¢n Uy√™n","latitude":10.98206,"longitude":106.7584,"street":"139 khu ph·ªë t√¢n m·ªπ dt743 th√°i h√≤a t√¢n uy√™n b√¨nh d∆∞∆°ng"},"phone":"+84969409102"},"id":"100125528252851"},{"name":"Massage B√¨nh B√¨nh An","checkins":0,"website":"http://Vananbinh.com","page":{"id":"164546561167411","name":"Massage B√¨nh B√¨nh An","link":"https://www.facebook.com/164546561167411","about":"massage kh·ªèe","location":{"city":"Ap Binh Duong (1)","latitude":10.98206,"longitude":106.7584,"street":"139 dt 743 khu ph·ªë t√¢n m·ªπ ph∆∞·ªùng th√°i h√≤a th·ªã x√£ t√¢n uy√™n b√¨nh d∆∞∆°ng"},"phone":"0785132043"},"id":"164546591167408"},{"name":"Tuy·ªÉn D·ª•ng Massage Relax Onl","checkins":1,"page":{"id":"100125411586196","name":"Tuy·ªÉn D·ª•ng Massage Relax Onl","link":"https://www.facebook.com/100125411586196","location":{"city":"T√¢n Uy√™n","latitude":10.98206,"longitude":106.7584,"street":"139 khu ph·ªë t√¢n m·ªπ dt743 th√°i h√≤a t√¢n uy√™n b√¨nh d∆∞∆°ng"},"phone":"+84969409102"},"id":"100125528252851"},{"name":"Nh√† H√†ng Karaoke Massage Ph·ª•ng Thi√™n","checkins":2,"page":{"id":"644936769039358","name":"Nh√† H√†ng Karaoke Massage Ph·ª•ng Thi√™n","link":"https://www.facebook.com/644936769039358","location":{"city":"T√¢n Uy√™n","latitude":10.9683728,"longitude":106.7783713,"street":"743C"},"phone":"+84 650 3626 168"},"id":"644936779039357"},{"name":"Massage t·∫°i nh√†","checkins":10,"page":{"id":"245336349541893","name":"Massage t·∫°i nh√†","link":"https://www.facebook.com/245336349541893","about":"CHƒÇM S√ìC M·∫∏& B√â SAU SINH; MASSAGE B·∫¶U; TH√îNG T·∫ÆC TIA S·ªÆA","location":{"city":"Bi√™n H√≤a","latitude":10.97945,"longitude":106.84401,"street":"ƒë∆∞·ªùng Nguy·ªÖn VƒÉn Ti√™n"},"phone":"+84909453633"},"id":"245336356208559"},{"name":"Gh·∫ø Massage Asama ƒê·ªìng Nai","checkins":0,"page":{"id":"103823624856509","name":"Gh·∫ø Massage Asama ƒê·ªìng Nai","link":"https://www.facebook.com/103823624856509","location":{"city":"Bi√™n H√≤a","latitude":10.97414,"longitude":106.85185,"street":"76 ƒê·ªìng Kh·ªüi"},"phone":"08.5555.2998"},"id":"103823761523162"},{"name":"Gh·∫ø Massage Ch√≠nh H√£ng KLC Bi√™n H√≤a","checkins":75,"website":"http://ghemassageklc.com/","page":{"id":"107557757594416","name":"Gh·∫ø Massage Ch√≠nh H√£ng KLC Bi√™n H√≤a","link":"https://www.facebook.com/107557757594416","about":"KLC - C√¥ng ty chƒÉm s√≥c s·ª©c kh·ªèe ZATAKA t·ª± h√†o l√† m·ªôt trong nh·ªØng nh√† ph√¢n ph·ªëi gh·∫ø massage v√† c√°c thi·∫øt b·ªã massage th√¥ng minh uy t√≠n t·∫°i Vi·ªát Nam.","location":{"city":"Bi√™n H√≤a","latitude":10.96689,"longitude":106.85469,"street":"BigC T√¢n Hi·ªáp, 1135 Nguy·ªÖn √Åi Qu·ªëc, Khu Ph·ªë 2"},"phone":"+84914252525"},"id":"129921162024742"},{"name":"Massage t·∫°i nh√†","checkins":10,"page":{"id":"245336349541893","name":"Massage t·∫°i nh√†","link":"https://www.facebook.com/245336349541893","about":"CHƒÇM S√ìC M·∫∏& B√â SAU SINH; MASSAGE B·∫¶U; TH√îNG T·∫ÆC TIA S·ªÆA","location":{"city":"Bi√™n H√≤a","latitude":10.97945,"longitude":106.84401,"street":"ƒë∆∞·ªùng Nguy·ªÖn VƒÉn Ti√™n"},"phone":"+84909453633"},"id":"245336356208559"},{"name":"ƒê√¨nh V≈© - B√°n gh·∫ø Massage to√†n th√¢n t·∫°i Long Kh√°nh,ƒê·ªìng Nai","checkins":0,"website":"dinhvu.vn","page":{"id":"105825657823124","name":"ƒê√¨nh V≈© - B√°n gh·∫ø Massage to√†n th√¢n t·∫°i Long Kh√°nh,ƒê·ªìng Nai","link":"https://www.facebook.com/105825657823124","about":"ƒê√¨nh V≈© b√°n gh·∫ø massage to√†n th√¢n gi√° r·∫ª,uy t√≠n ch·∫•t l∆∞·ª£ng t·∫°i ƒê·ªìng Nai.","location":{"city":"Bi√™n H√≤a","latitude":10.968214781475,"longitude":106.86009004646,"street":"829 Nguy·ªÖn √Åi Qu·ªëc"},"phone":"0978160339"},"id":"105825871156436"},{"name":"ƒê√¨nh V≈© - B√°n gh·∫ø massage to√†n th√¢n t·∫°i ƒê·ªìng Nai","checkins":3,"website":"https://dinhvu.vn/","page":{"id":"107638260819030","name":"ƒê√¨nh V≈© - B√°n gh·∫ø massage to√†n th√¢n t·∫°i ƒê·ªìng Nai","link":"https://www.facebook.com/107638260819030","about":"ƒê√¨nh V≈© cung c·∫•p gh·∫ø massage to√†n th√¢n t·∫°i 829 Nguy·ªÖn √Åi Qu·ªëc, P. T√¢n Hi·ªáp, TP. Bi√™n H√≤a, ƒê·ªìng Nai gi√° r·∫ª, uy t√≠n nh·∫•t.","location":{"city":"Bi√™n H√≤a","latitude":10.968999753477,"longitude":106.86598777771,"street":"829 Nguy·ªÖn √Åi Qu·ªëc, Ph∆∞·ªùng T√¢n Hi·ªáp"},"phone":"+84978160339"},"id":"107638480819008"},{"name":"M√°y Massage ƒêa NƒÉng","checkins":0,"page":{"id":"101582914642588","name":"M√°y Massage ƒêa NƒÉng","link":"https://www.facebook.com/101582914642588","location":{"city":"Ho Chi Minh City","latitude":10.95431,"longitude":106.60136,"street":"345 T·ªânh L·ªô 15, T√¢n Th·∫°nh ƒê√¥ng, C·ªß Chi, H·ªì Ch√≠ Minh"},"phone":"0903345159"},"id":"101583147975898"},{"name":"Massage LuNa B√¨nh D∆∞∆°ng","checkins":0,"website":"https://manmo.vn/detail/khach-san-luna.html","page":{"id":"102161541539569","name":"Massage LuNa B√¨nh D∆∞∆°ng","link":"https://www.facebook.com/102161541539569","about":"Massage LuNa c√≥ c√°c chi nh√°nh t·∫°i B√¨nh D∆∞∆°ng v√† TP HCM v·ªõi ƒë·ªôi ng≈© KTV tr·∫ª ƒë·∫πp, y√™u ngh·ªÅ v·ªõi ph∆∞∆°ng ch√¢m ph·ª•c v·ª• t·∫≠n t√¨nh qu√Ω kh√°ch h√†ng","location":{"city":"Thu Dau Mot","latitude":10.9637955,"longitude":106.6532092,"street":"164/59 B√πi Qu·ªëc Kh√°nh Ph∆∞·ªùng Ch√°nh Nghƒ©a"},"phone":"+84948345445"},"id":"102161721539551"},{"name":"Massage LuNa Ch√°nh Nghƒ©a","checkins":1,"page":{"id":"113842553730631","name":"Massage LuNa Ch√°nh Nghƒ©a","link":"https://www.facebook.com/113842553730631","about":"MASSAGE ƒê√ÅNG TR·∫¢I NGHI·ªÜM NH·∫§T B√åNH D∆Ø∆†NG ?\n=========================\nüí•X·ª©ng ƒë√°ng v·ªõi s·ªë ti·ªÅn b·∫°n b·ªè ra, Massage LUNA cam k·∫øt ƒë∆∞a ƒë·∫øn kh√°ch h√†ng d·ªãch v·ª• t·ªët nh·∫•t\n=========================","location":{"city":"Thu Dau Mot","latitude":10.96375436099,"longitude":106.66093826294,"street":"164/59 bui bui quoc khanh p. chanh nghia thu dau mot"},"phone":"+84948345445"},"id":"128368255611394"},{"name":"Massage LuNa B√¨nh D∆∞∆°ng","checkins":0,"website":"https://manmo.vn/detail/khach-san-luna.html","page":{"id":"102161541539569","name":"Massage LuNa B√¨nh D∆∞∆°ng","link":"https://www.facebook.com/102161541539569","about":"Massage LuNa c√≥ c√°c chi nh√°nh t·∫°i B√¨nh D∆∞∆°ng v√† TP HCM v·ªõi ƒë·ªôi ng≈© KTV tr·∫ª ƒë·∫πp, y√™u ngh·ªÅ v·ªõi ph∆∞∆°ng ch√¢m ph·ª•c v·ª• t·∫≠n t√¨nh qu√Ω kh√°ch h√†ng","location":{"city":"Thu Dau Mot","latitude":10.9637955,"longitude":106.6532092,"street":"164/59 B√πi Qu·ªëc Kh√°nh Ph∆∞·ªùng Ch√°nh Nghƒ©a"},"phone":"+84948345445"},"id":"102161721539551"},{"name":"Gh·∫ø Massage Kaitashi Nh·∫≠t B·∫£n t·∫°i B√¨nh D∆∞∆°ng","checkins":0,"website":"kaitashi.com","page":{"id":"107498437529052","name":"Gh·∫ø Massage Kaitashi Nh·∫≠t B·∫£n t·∫°i B√¨nh D∆∞∆°ng","link":"https://www.facebook.com/107498437529052","about":"Cung c·∫•p Gh·∫ø massage Kaitashi s·ªë m·ªôt Nh·∫≠t b·∫£n","location":{"city":"Thu Dau Mot","latitude":10.962155972394,"longitude":106.66626513004,"street":"415 ƒë∆∞·ªùng 30/4"},"phone":"+84966138158"},"id":"107505590861670"},{"name":"Gh·∫ø Massage Kaitashi-B√¨nh D∆∞∆°ng","checkins":12,"website":"https://kaitashi.com/","page":{"id":"354686145256519","name":"Gh·∫ø Massage Kaitashi-B√¨nh D∆∞∆°ng","link":"https://www.facebook.com/354686145256519","about":"Th∆∞∆°ng hi·ªáu m√°y t·∫≠p Nh·∫≠t B·∫£n Kaitashi v·ªõi c√°c s·∫£n ph·∫©m m√°y ch·∫°y b·ªô, gh·∫ø massage, xe ƒë·∫°p t·∫≠p th·ªÉ d·ª•c d√πng cho gia ƒë√¨nh.","location":{"city":"Thu Dau Mot","latitude":10.962040354363,"longitude":106.66622659816,"street":"415 ƒê∆∞·ªùng 30/4"},"phone":"+84966138158"},"id":"391037868288013"},{"name":"Gh·∫ø Massage Kaitashi T·∫°i B√¨nh D∆∞∆°ng: 0966.138.158","checkins":0,"website":"kaitashi.com","page":{"id":"108764474062581","name":"Gh·∫ø Massage Kaitashi T·∫°i B√¨nh D∆∞∆°ng: 0966.138.158","link":"https://www.facebook.com/108764474062581","about":"ƒê·∫°i l√Ω ·ªßy quy·ªÅn ph√¢n ph·ªëi m√°y ch·∫°y b·ªô, gh·∫ø massage th∆∞∆°ng hi·ªáu Kaitashi t·∫°i B√¨nh D∆∞∆°ng.","location":{"city":"Thu Dau Mot","latitude":10.961966184623,"longitude":106.66617617811,"street":"415 ƒê∆∞·ªùng 30/4 Th·ªß D·∫ßu M·ªôt T·ªânh B√¨nh D∆∞∆°ng"},"phone":"0966138158"},"id":"108764650729230"},{"name":"Hotel Massage Anh ƒê·ª©c","checkins":3,"page":{"id":"345711729128115","name":"Hotel Massage Anh ƒê·ª©c","link":"https://www.facebook.com/345711729128115","about":"Ch·∫•t l∆∞·ª£ng ph·ª•c v·ª• uy t√≠n - chuy√™n nghi·ªáp","location":{"city":"Thu Dau Mot","latitude":10.97095,"longitude":106.66677,"street":"219 Ho√†ng VƒÉn Th·ª•, ph∆∞·ªùng Ch√°nh Nghƒ©a"},"phone":"06503800321"},"id":"346995308999757"},{"name":"Spa Nail Massage  B·∫£o Tr√¢n","checkins":37,"page":{"id":"108198030662465","name":"Spa Nail Massage  B·∫£o Tr√¢n","link":"https://www.facebook.com/108198030662465","about":"Trung t√¢m d·∫°y ngh·ªÅ ,day b·∫±ng c·∫£ cai t√¢m bao ra ngh·ªÅ..n√≥i ƒëay la s·ª± l·ª±a ch·ªçn th√¥ng minh c·ªßa b·∫°n","location":{"latitude":10.959783389543,"longitude":106.67018651962}},"id":"108236017325333"},{"name":"Hotel_spa Anh ƒê·ª©c","checkins":154,"page":{"id":"300385620392849","name":"Hotel_spa Anh ƒê·ª©c","link":"https://www.facebook.com/300385620392849","about":"Hotel & Spa Anh ƒê·ª©c v·ªõi ƒë·ªôi ng≈© k·ªπ thu·∫≠t vi√™n chuy√™n nghi·ªáp, lu√¥n mang ƒë·∫øn c·∫£m gi√°c tho·∫£i m√°i v√† h√†i l√≤ng nh·∫•t ƒë·∫øn cho kh√°ch h√†ng","location":{"city":"Thu Dau Mot","latitude":10.970968242,"longitude":106.666825544,"street":"219 Ho√†ng VƒÉn Th·ª•, KDC.Ch√°nh Nghƒ©a,"},"phone":"+84 90 886 84 85"},"id":"300385733726171"},{"name":"Massage H·ªôi Ng∆∞·ªùi M√π T·ªânh B√¨nh D∆∞∆°ng","checkins":125,"page":{"id":"1868808243331839","name":"Massage H·ªôi Ng∆∞·ªùi M√π T·ªânh B√¨nh D∆∞∆°ng","link":"https://www.facebook.com/1868808243331839","location":{"city":"Thu Dau Mot","latitude":10.9736,"longitude":106.681999,"street":"445, L√™ H·ªìng Phong"},"phone":"0650 3827 897"},"id":"1868808249998505"},{"name":"Massage Thi√™n Thai","checkins":24,"page":{"id":"104248974516845","name":"Massage Thi√™n Thai","link":"https://www.facebook.com/104248974516845","about":"ÔøΩ H·ªá th·ªëng ÔøΩ& Massage Thi√™n Thai New c·ªßa ch√∫ng t√¥i lu√¥n lu√¥n ƒë·∫°o s·ª± m·ªõi m·∫ª,, ph·ª•c v·ª• ƒë·∫øn qu√Ω kh√°ch h√†ng... ƒê·ªôi ng≈© nh√¢n vi√™n c·ªßa ch√∫ng t√¥i ƒë√†o t·∫°o tay ngh·ªÅ r·∫•t nghi√™m ng·∫∑t b√†i b·∫£n.! ","location":{"city":"Thu Dau Mot","latitude":10.971819225395,"longitude":106.68224106431,"street":"534 L√™ H·ªìng Phong, Ph√∫ Ho√†, Th·ªß D·∫ßu M·ªôt"},"phone":"+84939999054"},"id":"104271114514631"},{"name":"Gh·∫ø Massage Life Sport B√¨nh D∆∞∆°ng","checkins":22,"website":"https://nhatnguyen.com/","page":{"id":"108375547586710","name":"Gh·∫ø Massage Life Sport B√¨nh D∆∞∆°ng","link":"https://www.facebook.com/108375547586710","about":"Life sport B√¨nh D∆∞∆°ng l√† ƒë∆°n v·ªã chuy√™n cung c·∫•p c√°c d√≤ng gh·∫ø massage ch√≠nh h√£ng nh∆∞ Lifesport,BH, uy t√≠n v√† ch·∫•t l∆∞·ª£ng","location":{"city":"Thu Dau Mot","latitude":10.969884509303,"longitude":106.67044401169,"street":"262 ƒê∆∞·ªùng 30/4 (ƒê·ªëi di·ªán s√¢n b√≥ng G√≤ ƒê·∫≠u)"},"phone":"+84941239269"},"id":"108375707586694"},{"name":"Gh·∫ø Massage - B√°n Gh·∫ø Massage Fuji kashi Ch√≠nh H√£ng T·∫°i B√¨nh D∆∞∆°ng","checkins":12,"website":"https://thethaotaiphat.com.vn/ghe-massage/c84.html","page":{"id":"292175584889828","name":"Gh·∫ø Massage - B√°n Gh·∫ø Massage Fuji kashi Ch√≠nh H√£ng T·∫°i B√¨nh D∆∞∆°ng","link":"https://www.facebook.com/292175584889828","about":"Gh·∫ø massage to√†n th√¢n Fujikashi - mang ƒë·∫øn nh·ªØng gi√° tr·ªã s·ªëng ƒë√≠ch th·ª±c cho cu·ªôc s·ªëng hi·ªán ƒë·∫°i","location":{"city":"Thu Dau Mot","latitude":10.97135909646,"longitude":106.6708946228,"street":"226 ƒê∆∞·ªùng 30/4 Ph∆∞·ªùng Ch√°nh Nghƒ©a"},"phone":"0949893555"},"id":"292175621556491"},{"name":"Spa Nail Massage  B·∫£o Tr√¢n","checkins":37,"page":{"id":"108198030662465","name":"Spa Nail Massage  B·∫£o Tr√¢n","link":"https://www.facebook.com/108198030662465","about":"Trung t√¢m d·∫°y ngh·ªÅ ,day b·∫±ng c·∫£ cai t√¢m bao ra ngh·ªÅ..n√≥i ƒëay la s·ª± l·ª±a ch·ªçn th√¥ng minh c·ªßa b·∫°n","location":{"latitude":10.959783389543,"longitude":106.67018651962}},"id":"108236017325333"},{"name":"Gh·∫ø massage TP. Th·ªß D·∫ßu M·ªôt- B√¨nh D∆∞∆°ng","checkins":0,"page":{"id":"101875248254595","name":"Gh·∫ø massage TP. Th·ªß D·∫ßu M·ªôt- B√¨nh D∆∞∆°ng","link":"https://www.facebook.com/101875248254595","location":{"city":"Thu Dau Mot","latitude":10.96699,"longitude":106.68227,"street":"27 ƒê·∫°i l·ªô B√¨nh D∆∞∆°ng, P. Ph√∫ Th·ªç"},"phone":"02743852112"},"id":"101875448254575"},{"name":"LYLY SPA Massage Foot","checkins":241,"page":{"id":"505671266465590","name":"LYLY SPA Massage Foot","link":"https://www.facebook.com/505671266465590","location":{"city":"Thu Dau Mot","latitude":10.974446003,"longitude":106.677714937,"street":"D1"}},"id":"505671273132256"},{"name":"Gh·∫ø Massage Kaitashi Nh·∫≠t B·∫£n t·∫°i B√¨nh D∆∞∆°ng","checkins":0,"website":"kaitashi.com","page":{"id":"107498437529052","name":"Gh·∫ø Massage Kaitashi Nh·∫≠t B·∫£n t·∫°i B√¨nh D∆∞∆°ng","link":"https://www.facebook.com/107498437529052","about":"Cung c·∫•p Gh·∫ø massage Kaitashi s·ªë m·ªôt Nh·∫≠t b·∫£n","location":{"city":"Thu Dau Mot","latitude":10.962155972394,"longitude":106.66626513004,"street":"415 ƒë∆∞·ªùng 30/4"},"phone":"+84966138158"},"id":"107505590861670"},{"name":"Vmax Massage","checkins":5,"website":"http://vmaxmassage.com/","page":{"id":"101175187911052","name":"Vmax Massage","link":"https://www.facebook.com/101175187911052","about":"Massage Vmax - 271A ƒê·∫°i l·ªô B√¨nh D∆∞∆°ng, Tp Th·ªß D·∫ßu M·ªôt, T·ªânh B√¨nh D∆∞∆°ng.\nƒê·∫≥ng c·∫•p - Sang tr·ªçng - L·ªãch s·ª± - Qu√Ω ph√°i.","location":{"city":"Thu Dau Mot","latitude":10.9724544993,"longitude":106.67095899582,"street":"271A ƒê·∫°i l·ªô B√¨nh D∆∞∆°ng"},"phone":"+842746531602"},"id":"108044430557461"},{"name":"Gh·∫ø Massage Kaitashi-B√¨nh D∆∞∆°ng","checkins":12,"website":"https://kaitashi.com/","page":{"id":"354686145256519","name":"Gh·∫ø Massage Kaitashi-B√¨nh D∆∞∆°ng","link":"https://www.facebook.com/354686145256519","about":"Th∆∞∆°ng hi·ªáu m√°y t·∫≠p Nh·∫≠t B·∫£n Kaitashi v·ªõi c√°c s·∫£n ph·∫©m m√°y ch·∫°y b·ªô, gh·∫ø massage, xe ƒë·∫°p t·∫≠p th·ªÉ d·ª•c d√πng cho gia ƒë√¨nh.","location":{"city":"Thu Dau Mot","latitude":10.962040354363,"longitude":106.66622659816,"street":"415 ƒê∆∞·ªùng 30/4"},"phone":"+84966138158"},"id":"391037868288013"},{"name":"Nh√† h√†ng karaoke, massage Kim Ho√†ng","checkins":43,"page":{"id":"1843417682579343","name":"Nh√† h√†ng karaoke, massage Kim Ho√†ng","link":"https://www.facebook.com/1843417682579343","location":{"city":"Thu Dau Mot","latitude":10.97406229,"longitude":106.675915194,"street":"45, Tr·∫ßn VƒÉn ∆†n, Khu Ph·ªë 7"},"phone":"0650 3898 222"},"id":"1843417695912675"},{"name":"Hotel Massage Anh ƒê·ª©c","checkins":3,"page":{"id":"345711729128115","name":"Hotel Massage Anh ƒê·ª©c","link":"https://www.facebook.com/345711729128115","about":"Ch·∫•t l∆∞·ª£ng ph·ª•c v·ª• uy t√≠n - chuy√™n nghi·ªáp","location":{"city":"Thu Dau Mot","latitude":10.97095,"longitude":106.66677,"street":"219 Ho√†ng VƒÉn Th·ª•, ph∆∞·ªùng Ch√°nh Nghƒ©a"},"phone":"06503800321"},"id":"346995308999757"},{"name":"Gh·∫ø Massage Kaitashi T·∫°i B√¨nh D∆∞∆°ng: 0966.138.158","checkins":0,"website":"kaitashi.com","page":{"id":"108764474062581","name":"Gh·∫ø Massage Kaitashi T·∫°i B√¨nh D∆∞∆°ng: 0966.138.158","link":"https://www.facebook.com/108764474062581","about":"ƒê·∫°i l√Ω ·ªßy quy·ªÅn ph√¢n ph·ªëi m√°y ch·∫°y b·ªô, gh·∫ø massage th∆∞∆°ng hi·ªáu Kaitashi t·∫°i B√¨nh D∆∞∆°ng.","location":{"city":"Thu Dau Mot","latitude":10.961966184623,"longitude":106.66617617811,"street":"415 ƒê∆∞·ªùng 30/4 Th·ªß D·∫ßu M·ªôt T·ªânh B√¨nh D∆∞∆°ng"},"phone":"0966138158"},"id":"108764650729230"},{"name":"Hotel_spa Anh ƒê·ª©c","checkins":154,"page":{"id":"300385620392849","name":"Hotel_spa Anh ƒê·ª©c","link":"https://www.facebook.com/300385620392849","about":"Hotel & Spa Anh ƒê·ª©c v·ªõi ƒë·ªôi ng≈© k·ªπ thu·∫≠t vi√™n chuy√™n nghi·ªáp, lu√¥n mang ƒë·∫øn c·∫£m gi√°c tho·∫£i m√°i v√† h√†i l√≤ng nh·∫•t ƒë·∫øn cho kh√°ch h√†ng","location":{"city":"Thu Dau Mot","latitude":10.970968242,"longitude":106.666825544,"street":"219 Ho√†ng VƒÉn Th·ª•, KDC.Ch√°nh Nghƒ©a,"},"phone":"+84 90 886 84 85"},"id":"300385733726171"},{"name":"Gh·∫ø Massage Fuji kashi t·∫°i B√¨nh D∆∞∆°ng","checkins":1,"website":"https://thethaotaiphat.com.vn/ghe-massage.html","page":{"id":"571184086641676","name":"Gh·∫ø Massage Fuji kashi t·∫°i B√¨nh D∆∞∆°ng","link":"https://www.facebook.com/571184086641676","about":"Chuy√™n cung c·∫•p d√≤ng gh·∫ø massage Fuji Kashi Ch√≠nh h√£ng ƒë·ªôc quy·ªÅn t·∫°i th·ªã tr∆∞·ªùng vi·ªát nam.\nB·∫£o h√†nh 6 nƒÉm tr√™n to√†n qu·ªëc.\n","location":{"city":"Thu Dau Mot","latitude":10.971248502679,"longitude":106.67094290257,"street":"226 ƒê∆∞·ªùng 30/4 Ph∆∞·ªùng Ch√°nh Nghƒ©a"},"phone":"0949893555"},"id":"571200769973341"},{"name":"Gh·∫ø Massage B√¨nh D∆∞∆°ng","checkins":0,"website":"https://elipsport.vn/","page":{"id":"104145487860497","name":"Gh·∫ø Massage B√¨nh D∆∞∆°ng","link":"https://www.facebook.com/104145487860497","about":"C·ª≠a h√†ng thi·∫øt b·ªã v√† d·ª•ng c·ª• t·∫≠p th·ªÉ d·ª•c ph√π h·ª£p v·ªõi m·ªçi l·ª©a tu·ªïi.","location":{"city":"Thu Dau Mot","latitude":10.96462712631,"longitude":106.68654129095,"street":"27 ƒê·∫°i l·ªô B√¨nh D∆∞∆°ng"},"phone":"+842743852112"},"id":"104145651193814"},{"name":"Home Decor","checkins":0,"website":"art-homedecor.com","page":{"id":"2242070986016196","name":"Home Decor","link":"https://www.facebook.com/2242070986016196","about":"HOME & GARDEN ","location":{"city":"Thu Dau Mot","latitude":10.966459390242,"longitude":106.68316404678,"street":"1329/10/2 C√°ch M·∫°ng Th√°ng 8"},"phone":"+84938535111"},"id":"2256035997953028"},{"name":"H·ªá th·ªëng Karaoke & Massage Royal","checkins":1,"website":"tuyendungkaraoke.com","page":{"id":"1769543756451563","name":"H·ªá th·ªëng Karaoke & Massage Royal","link":"https://www.facebook.com/1769543756451563","about":"D·ªäCH V·ª§ KARAOKE CAO C·∫§P v√† ph·ª•c v·ª• chuy√™n nghi·ªáp, t·∫≠n t√¢m s·∫Ω mang l·∫°i nh·ªØng ph√∫t gi√¢y th∆∞ gi√£n c≈©ng nh∆∞ k·ª∑ ni·ªám kh√≥ qu√™n ƒë·∫øn c√°c b·∫°n.\n","location":{"city":"Thu Dau Mot","latitude":10.971664545737,"longitude":106.68210625648,"street":"534 l√™ h·ªìng phong ph√∫ h√≤a th·ªß d·∫ßu b√¨nh duong"},"phone":"+84707310999"},"id":"1769543816451557"},{"name":"King Massage","checkins":6,"page":{"id":"103591677654218","name":"King Massage","link":"https://www.facebook.com/103591677654218","about":"Ch√∫ng t√¥i kh√¥ng ch·ªâ ph·ª•c v·ª•. M√† c√≤n cho b·∫°n nh·ªØng tr√£i nghi·ªám tuy·ªát v·ªùi","location":{"city":"B√¨nh ??","latitude":10.956138896696,"longitude":106.6948735714,"street":"da7 khu c√¥ng nghi·ªáp Vi·ªát Sing, Thu·∫≠n AN"},"phone":"+84946190632"},"id":"103866050960114"},{"name":"Gh·∫ø Massage B√¨nh D∆∞∆°ng","checkins":0,"website":"https://elipsport.vn/","page":{"id":"104145487860497","name":"Gh·∫ø Massage B√¨nh D∆∞∆°ng","link":"https://www.facebook.com/104145487860497","about":"C·ª≠a h√†ng thi·∫øt b·ªã v√† d·ª•ng c·ª• t·∫≠p th·ªÉ d·ª•c ph√π h·ª£p v·ªõi m·ªçi l·ª©a tu·ªïi.","location":{"city":"Thu Dau Mot","latitude":10.96462712631,"longitude":106.68654129095,"street":"27 ƒê·∫°i l·ªô B√¨nh D∆∞∆°ng"},"phone":"+842743852112"},"id":"104145651193814"},{"name":"Gh·∫ø massage TP. Th·ªß D·∫ßu M·ªôt- B√¨nh D∆∞∆°ng","checkins":0,"page":{"id":"101875248254595","name":"Gh·∫ø massage TP. Th·ªß D·∫ßu M·ªôt- B√¨nh D∆∞∆°ng","link":"https://www.facebook.com/101875248254595","location":{"city":"Thu Dau Mot","latitude":10.96699,"longitude":106.68227,"street":"27 ƒê·∫°i l·ªô B√¨nh D∆∞∆°ng, P. Ph√∫ Th·ªç"},"phone":"02743852112"},"id":"101875448254575"},{"name":"Home Decor","checkins":0,"website":"art-homedecor.com","page":{"id":"2242070986016196","name":"Home Decor","link":"https://www.facebook.com/2242070986016196","about":"HOME & GARDEN ","location":{"city":"Thu Dau Mot","latitude":10.966459390242,"longitude":106.68316404678,"street":"1329/10/2 C√°ch M·∫°ng Th√°ng 8"},"phone":"+84938535111"},"id":"2256035997953028"},{"name":"Spa Massage Ng·ªçc Ph·ªâ Thu√Ω","checkins":20,"page":{"id":"417648308599751","name":"Spa Massage Ng·ªçc Ph·ªâ Thu√Ω","link":"https://www.facebook.com/417648308599751","location":{"city":"Binh Chuan","latitude":10.96049421779,"longitude":106.71816153684}},"id":"417648315266417"},{"name":"Minh H√πng Massage","checkins":0,"page":{"id":"114473766997854","name":"Minh H√πng Massage","link":"https://www.facebook.com/114473766997854","about":"Massage gi√∫p tƒÉng tu·∫ßn ho√†n m√°u, gi·∫£m cƒÉng c∆°. Gi·∫£m huy·∫øt √°p v·ªõi ng∆∞·ªùi b·ªã cao huy·∫øt √°p, l√†m th∆∞ gi√£n v√† tƒÉng l∆∞·ª£ng Endorphins cho c∆° th·ªÉ,gi·∫£m stress, l√†m gi·∫•c ng·ªß s√¢u h∆°n.","location":{"city":"Thu Dau Mot","latitude":10.960956106428,"longitude":106.70906695672,"street":"Nh√† ngh·ªâ Minh H√πng, Khu D√¢n C∆∞ Thu·∫≠n Giao, Thu·∫≠n Giao, Thu·∫≠n An, B√¨nh D∆∞∆°ng, Vi·ªát Nam"}},"id":"114473990331165"},{"name":"Massage Luxury AZAKI","checkins":0,"page":{"id":"101183038033438","name":"Massage Luxury AZAKI","link":"https://www.facebook.com/101183038033438","about":"Ph√¢n ph·ªëi ch·ªânh h√£ng : \nM√°y massage c·ªï Azaki v√† M√°y massage m·∫Øt Azaki","location":{"latitude":10.962837987695,"longitude":106.72971010208,"street":"122 L√™ Th·ªã Trung"},"phone":"+84336603017"},"id":"101183244700084"},{"name":"Massage Nh∆∞ Qu·ª≥nh","checkins":1,"page":{"id":"107343027380139","name":"Massage Nh∆∞ Qu·ª≥nh","link":"https://www.facebook.com/107343027380139","about":"H·ªá th·ªëng Massage ƒë·∫≥ng c·∫•p, sang tr·ªçng, d·ªãch v·ª• chu ƒë√°o, nhi·ªát t√¨nh","location":{"city":"Binh Hoa","latitude":10.958921961305,"longitude":106.7423033782,"street":"12/6 Khu Ph·ªë 1B, An Ph√∫, Thu·∫≠n An"}},"id":"107343277380114"},{"name":"Spa Massage Ng·ªçc Ph·ªâ Thu√Ω","checkins":20,"page":{"id":"417648308599751","name":"Spa Massage Ng·ªçc Ph·ªâ Thu√Ω","link":"https://www.facebook.com/417648308599751","location":{"city":"Binh Chuan","latitude":10.96049421779,"longitude":106.71816153684}},"id":"417648315266417"},{"name":"Massage Nh∆∞ Qu·ª≥nh","checkins":1,"page":{"id":"107343027380139","name":"Massage Nh∆∞ Qu·ª≥nh","link":"https://www.facebook.com/107343027380139","about":"H·ªá th·ªëng Massage ƒë·∫≥ng c·∫•p, sang tr·ªçng, d·ªãch v·ª• chu ƒë√°o, nhi·ªát t√¨nh","location":{"city":"Binh Hoa","latitude":10.958921961305,"longitude":106.7423033782,"street":"12/6 Khu Ph·ªë 1B, An Ph√∫, Thu·∫≠n An"}},"id":"107343277380114"}]