[{"name":"Cty Sx TNHH +DK Thiết bị spa thẩm mỹ viện","checkins":0,"page":{"id":"101436348236955","fan_count":27,"name":"Cty Sx TNHH +DK Thiết bị spa thẩm mỹ viện","link":"https://www.facebook.com/101436348236955","about":"niềm tin khách hàng thương hiệu tồn tại của chúng tôi","location":{"city":"Ho Chi Minh City","latitude":10.693354793904,"longitude":106.70132160187,"street":"1368/52/ lê Văn lương nhà bè"},"phone":"+84973797913"},"id":"101438431570080"},{"name":"Thẩm Mỹ Xuân Dung","checkins":6,"website":"Https://thammyxuandung.com","page":{"id":"205661446700799","fan_count":376,"name":"Thẩm Mỹ Xuân Dung","link":"https://www.facebook.com/205661446700799","about":"XUÂN DUNG SPA địa chỉ làm đẹp uy tín,  quý khách hàng sẽ được tư vấn và chăm sóc da hiệu quả và an toàn với các dịch vụ như chăm sóc da cơ bản, giảm béo, trị mụn, nám, tàn nhang bằng công nghệ cao","location":{"city":"Ho Chi Minh City","latitude":10.702273636875,"longitude":106.73213481903,"street":"ĐƯỜNG 15B, PHƯỜNG PHÚ MỸ, QUẬN 7"},"phone":"0909588873"},"id":"243793272887616"},{"name":"THẨM MỸ HOÀN THIỆN","checkins":2,"website":"http://Thammyhoanthien.com","page":{"id":"1971829086396305","fan_count":47,"name":"THẨM MỸ HOÀN THIỆN","link":"https://www.facebook.com/1971829086396305","location":{"city":"Ho Chi Minh City","latitude":10.68211,"longitude":106.73664,"street":"Địa chỉ 1 : 214 tổ 19, Lô K1A, Quốc lộ 50, Cần Đước, Long An"},"phone":"0938512999"},"id":"1971829123062968"},{"name":"Bác sĩ Sản phụ khoa Trúc Phương - Bệnh viện Nguyễn Tri Phương","checkins":0,"website":"https://finizz.com/clinics/35046-phong-kham-san-phu-khoa-sieu-am-bscki-tran-thi-truc-phuong","page":{"id":"2234923073214424","fan_count":1,"name":"Bác sĩ Sản phụ khoa Trúc Phương - Bệnh viện Nguyễn Tri Phương","link":"https://www.facebook.com/2234923073214424","about":"Bác sĩ Trần Thị Trúc Phương\nBác sĩ sản phụ khoa Bệnh viện Nguyễn Tri Phương","location":{"city":"Ho Chi Minh City","latitude":10.70406,"longitude":106.72892,"street":"Số 285B Phạm Hữu Lầu, Phường Phú Mỹ, Quận 7"}},"id":"2234923076547757"},{"name":"Phun thêu điêu khắc thẩm mỹ Hoa Mai","checkins":0,"page":{"id":"1564067590339539","fan_count":155,"name":"Phun thêu điêu khắc thẩm mỹ Hoa Mai","link":"https://www.facebook.com/1564067590339539","about":"Đẹp Tự Nhiên \nAn Toàn Tuyệt Đối\nThời Gian Hoàn Thành Nhanh\nKhông Đau, Không Sưng","location":{"city":"Ho Chi Minh City","latitude":10.685538993,"longitude":106.74468344117},"phone":"0916662236"},"id":"1564075507005414"},{"name":"Phương Tâm Lê - Phun Xăm Thẩm Mỹ","checkins":0,"page":{"id":"107144227752342","fan_count":64,"name":"Phương Tâm Lê - Phun Xăm Thẩm Mỹ","link":"https://www.facebook.com/107144227752342","about":"Phương Tâm Lê - Phun Xăm Thẩm Mỹ","location":{"city":"Ben Luc","latitude":10.685032020939,"longitude":106.53965152866,"street":"Tân Bửu"}},"id":"107316867735078"},{"name":"Thẩm Mỹ Viện Nguyên Trang","checkins":9,"page":{"id":"273228803126290","fan_count":5,"name":"Thẩm Mỹ Viện Nguyên Trang","link":"https://www.facebook.com/273228803126290","location":{"city":"Bình Chánh","latitude":10.66743,"longitude":106.56326,"street":"Đường Hoàng Phan Thái"},"phone":"090-8741998"},"id":"273228813126289"},{"name":"Viện Chăm Sóc Da Thẩm Mỹ Mỹ Duyên","checkins":6,"page":{"id":"441402069542912","fan_count":2,"name":"Viện Chăm Sóc Da Thẩm Mỹ Mỹ Duyên","link":"https://www.facebook.com/441402069542912","about":"PHUN THEU THAM MY","location":{"city":"Ho Chi Minh City","latitude":10.68195,"longitude":106.5776,"street":"Đường Bùi Thanh Khiết"},"phone":"+84 90 275 95 47"},"id":"441402079542911"},{"name":"Mỹ Viện Huệ Lan","checkins":2,"page":{"id":"731735710365818","fan_count":2,"name":"Mỹ Viện Huệ Lan","link":"https://www.facebook.com/731735710365818","location":{"city":"Ho Chi Minh City","latitude":10.66518,"longitude":106.57157,"street":"Đường Số 18B"},"phone":"+84 90 390 10 97"},"id":"731735717032484"},{"name":"Thể Dục Thẩm Mỹ Mai Thảo-Yoga","checkins":64,"page":{"id":"188804481630723","fan_count":12,"name":"Thể Dục Thẩm Mỹ Mai Thảo-Yoga","link":"https://www.facebook.com/188804481630723","location":{"city":"Ho Chi Minh City","latitude":10.66254,"longitude":106.57171,"street":"ĐƯỜNG Tổ 8-11-12"},"phone":"+84 93 844 59 68"},"id":"188804498297388"},{"name":"Viện Thẩm Mỹ Công Nghệ Cao Phương Thảo","checkins":3878,"page":{"id":"453722418415185","fan_count":38,"name":"Viện Thẩm Mỹ Công Nghệ Cao Phương Thảo","link":"https://www.facebook.com/453722418415185","location":{"city":"Ho Chi Minh City","latitude":10.6616011,"longitude":106.5838629},"phone":"+84 126 571 5278"},"id":"453722758415151"},{"name":"Viện Chăm Sóc Da Thẩm Mỹ Mỹ Duyên","checkins":6,"page":{"id":"441402069542912","fan_count":2,"name":"Viện Chăm Sóc Da Thẩm Mỹ Mỹ Duyên","link":"https://www.facebook.com/441402069542912","about":"PHUN THEU THAM MY","location":{"city":"Ho Chi Minh City","latitude":10.68195,"longitude":106.5776,"street":"Đường Bùi Thanh Khiết"},"phone":"+84 90 275 95 47"},"id":"441402079542911"},{"name":"Thẩm Mỹ Viện ALONG","checkins":0,"page":{"id":"108569490602587","fan_count":30,"name":"Thẩm Mỹ Viện ALONG","link":"https://www.facebook.com/108569490602587","location":{"city":"Ho Chi Minh City","latitude":10.671256862509,"longitude":106.61437511444,"street":"E10/58 ấp 5 xã Hưng Long .Huyện Bình Chánh. Tphcm"},"phone":"+84967615993"},"id":"110835260376010"},{"name":"Câu Lạc Bộ Thể Hình-Thẩm Mỹ Nam-Nữ Sang Sport","checkins":291,"page":{"id":"1365172540205991","fan_count":4,"name":"Câu Lạc Bộ Thể Hình-Thẩm Mỹ Nam-Nữ Sang Sport","link":"https://www.facebook.com/1365172540205991","location":{"city":"Ho Chi Minh City","latitude":10.66388,"longitude":106.6105,"street":"ĐƯỜNG An Phú Tây-Hưng Long"}},"id":"1365172546872657"},{"name":"Câu Lạc Bộ Thể Hình-Thẩm Mỹ Nam-Nữ Sang Sport","checkins":11,"page":{"id":"1382598031847626","fan_count":0,"name":"Câu Lạc Bộ Thể Hình-Thẩm Mỹ Nam-Nữ Sang Sport","link":"https://www.facebook.com/1382598031847626","location":{"city":"Ho Chi Minh City","latitude":10.66355,"longitude":106.61025,"street":"ĐƯỜNG An Phú Tây-Hưng Long"}},"id":"1382598051847624"},{"name":"Thẩm Mỹ Viện ALONG","checkins":0,"page":{"id":"108569490602587","fan_count":30,"name":"Thẩm Mỹ Viện ALONG","link":"https://www.facebook.com/108569490602587","location":{"city":"Ho Chi Minh City","latitude":10.671256862509,"longitude":106.61437511444,"street":"E10/58 ấp 5 xã Hưng Long .Huyện Bình Chánh. Tphcm"},"phone":"+84967615993"},"id":"110835260376010"},{"name":"THẨM MỸ TAI Tài-Nguyễn","checkins":5,"page":{"id":"111869840573948","fan_count":837,"name":"THẨM MỸ TAI Tài-Nguyễn","link":"https://www.facebook.com/111869840573948","about":"Chuyên phẫu thuật thẩm mỹ,Tư vấn chăm sóc và dưỡng tai cho các dòng chó Dobermann,Bully,Pit bull,Minpin,Great dane...","location":{"city":"Ho Chi Minh City","latitude":10.686502521274,"longitude":106.67975637198},"phone":"+84973077199"},"id":"111946680566264"},{"name":"THẨM MỸ HOÀN THIỆN","checkins":2,"website":"http://Thammyhoanthien.com","page":{"id":"1971829086396305","fan_count":47,"name":"THẨM MỸ HOÀN THIỆN","link":"https://www.facebook.com/1971829086396305","location":{"city":"Ho Chi Minh City","latitude":10.68211,"longitude":106.73664,"street":"Địa chỉ 1 : 214 tổ 19, Lô K1A, Quốc lộ 50, Cần Đước, Long An"},"phone":"0938512999"},"id":"1971829123062968"},{"name":"Phòng khám Da liễu - Thẩm mỹ công nghệ cao Bác sĩ Lan Hương","checkins":61,"page":{"id":"993475554081898","fan_count":440,"name":"Phòng khám Da liễu - Thẩm mỹ công nghệ cao Bác sĩ Lan Hương","link":"https://www.facebook.com/993475554081898","about":"số 5, đường Dương Thị Năm, ấp 1, Phú Xuân, Nhà Bè, TP Hồ Chí Minh","location":{"city":"Ho Chi Minh City","latitude":10.67655114827,"longitude":106.7360201921,"street":"Số 5, đường Dương Thị Năm, ấp 1, xã Phú Xuân, Nhà Bè"},"phone":"0366956666"},"id":"993475584081895"},{"name":"Phun Xăm Thẩm Mỹ - Anne Beauty Studio","checkins":11,"page":{"id":"107740844030558","fan_count":128,"name":"Phun Xăm Thẩm Mỹ - Anne Beauty Studio","link":"https://www.facebook.com/107740844030558","about":"Chuyên Phun Xăm Thẩm Mỹ Mày, Môi, Mí","location":{"city":"Ho Chi Minh City","latitude":10.66525,"longitude":106.72547,"street":"102 Nguyễn Văn Tạo, Ấp 3, Xã Long Thới, Huyện Nhà Bè"},"phone":"+84938771933"},"id":"160380468766595"},{"name":"Phun Xăm Thẩm Mỹ Trung Tâm","checkins":2,"page":{"id":"1051852694871879","fan_count":17803,"name":"Phun Xăm Thẩm Mỹ Trung Tâm","link":"https://www.facebook.com/1051852694871879","location":{"city":"Ho Chi Minh City","latitude":10.678489473123,"longitude":106.7253112793,"street":"( 197/1 Trần Quang Diệu - An Phú - BD)"},"phone":"0982210404"},"id":"1073445622712586"},{"name":"THẨM MỸ HOÀN THIỆN","checkins":2,"website":"http://Thammyhoanthien.com","page":{"id":"1971829086396305","fan_count":47,"name":"THẨM MỸ HOÀN THIỆN","link":"https://www.facebook.com/1971829086396305","location":{"city":"Ho Chi Minh City","latitude":10.68211,"longitude":106.73664,"street":"Địa chỉ 1 : 214 tổ 19, Lô K1A, Quốc lộ 50, Cần Đước, Long An"},"phone":"0938512999"},"id":"1971829123062968"},{"name":"Phòng khám Da liễu - Thẩm mỹ công nghệ cao Bác sĩ Lan Hương","checkins":61,"page":{"id":"993475554081898","fan_count":440,"name":"Phòng khám Da liễu - Thẩm mỹ công nghệ cao Bác sĩ Lan Hương","link":"https://www.facebook.com/993475554081898","about":"số 5, đường Dương Thị Năm, ấp 1, Phú Xuân, Nhà Bè, TP Hồ Chí Minh","location":{"city":"Ho Chi Minh City","latitude":10.67655114827,"longitude":106.7360201921,"street":"Số 5, đường Dương Thị Năm, ấp 1, xã Phú Xuân, Nhà Bè"},"phone":"0366956666"},"id":"993475584081895"},{"name":"Phun thêu điêu khắc thẩm mỹ Hoa Mai","checkins":0,"page":{"id":"1564067590339539","fan_count":155,"name":"Phun thêu điêu khắc thẩm mỹ Hoa Mai","link":"https://www.facebook.com/1564067590339539","about":"Đẹp Tự Nhiên \nAn Toàn Tuyệt Đối\nThời Gian Hoàn Thành Nhanh\nKhông Đau, Không Sưng","location":{"city":"Ho Chi Minh City","latitude":10.685538993,"longitude":106.74468344117},"phone":"0916662236"},"id":"1564075507005414"},{"name":"Thẩm Mỹ Viện Sắc Đẹp Ngân Hà Spa","checkins":0,"page":{"id":"100661671687683","fan_count":3,"name":"Thẩm Mỹ Viện Sắc Đẹp Ngân Hà Spa","link":"https://www.facebook.com/100661671687683","location":{"city":"Binh Thanh","latitude":10.66564,"longitude":106.77554,"street":"Bình Thạnh"},"phone":"0333324936"},"id":"100661921687658"},{"name":"Thẩm Mỹ Viện Sắc Đẹp Ngân Hà Spa","checkins":0,"page":{"id":"100661671687683","fan_count":3,"name":"Thẩm Mỹ Viện Sắc Đẹp Ngân Hà Spa","link":"https://www.facebook.com/100661671687683","location":{"city":"Binh Thanh","latitude":10.66564,"longitude":106.77554,"street":"Bình Thạnh"},"phone":"0333324936"},"id":"100661921687658"},{"name":"Thẩm Mỹ Viện Nguyên Trang","checkins":9,"page":{"id":"273228803126290","fan_count":5,"name":"Thẩm Mỹ Viện Nguyên Trang","link":"https://www.facebook.com/273228803126290","location":{"city":"Bình Chánh","latitude":10.66743,"longitude":106.56326,"street":"Đường Hoàng Phan Thái"},"phone":"090-8741998"},"id":"273228813126289"},{"name":"Mỹ Viện Huệ Lan","checkins":2,"page":{"id":"731735710365818","fan_count":2,"name":"Mỹ Viện Huệ Lan","link":"https://www.facebook.com/731735710365818","location":{"city":"Ho Chi Minh City","latitude":10.66518,"longitude":106.57157,"street":"Đường Số 18B"},"phone":"+84 90 390 10 97"},"id":"731735717032484"},{"name":"Mỹ Viện Kvivi Bình Chánh","checkins":86,"page":{"id":"217350932185988","fan_count":49,"name":"Mỹ Viện Kvivi Bình Chánh","link":"https://www.facebook.com/217350932185988","about":"Thẩm Mỹ Viện Quốc Tế KEN","location":{"city":"Ho Chi Minh City","latitude":10.6585432625,"longitude":106.58047285,"street":"D16/89 Đinh Đức Thiện, Xã Bình Chánh, Huyện Bình Chánh"},"phone":"+84772792228"},"id":"217350938852654"},{"name":"Thẩm mỹ Thanh Phượng","checkins":4,"page":{"id":"277652742742804","fan_count":2,"name":"Thẩm mỹ Thanh Phượng","link":"https://www.facebook.com/277652742742804","location":{"city":"Ho Chi Minh City","latitude":10.6606819,"longitude":106.57691739,"street":"Đinh đức thiện"}},"id":"277652749409470"},{"name":"Thể Dục Thẩm Mỹ Mai Thảo-Yoga","checkins":64,"page":{"id":"188804481630723","fan_count":12,"name":"Thể Dục Thẩm Mỹ Mai Thảo-Yoga","link":"https://www.facebook.com/188804481630723","location":{"city":"Ho Chi Minh City","latitude":10.66254,"longitude":106.57171,"street":"ĐƯỜNG Tổ 8-11-12"},"phone":"+84 93 844 59 68"},"id":"188804498297388"},{"name":"Viện Thẩm Mỹ Công Nghệ Cao Phương Thảo","checkins":3878,"page":{"id":"453722418415185","fan_count":38,"name":"Viện Thẩm Mỹ Công Nghệ Cao Phương Thảo","link":"https://www.facebook.com/453722418415185","location":{"city":"Ho Chi Minh City","latitude":10.6616011,"longitude":106.5838629},"phone":"+84 126 571 5278"},"id":"453722758415151"},{"name":"Mỹ Viện Kvivi Bình Chánh","checkins":86,"page":{"id":"217350932185988","fan_count":49,"name":"Mỹ Viện Kvivi Bình Chánh","link":"https://www.facebook.com/217350932185988","about":"Thẩm Mỹ Viện Quốc Tế KEN","location":{"city":"Ho Chi Minh City","latitude":10.6585432625,"longitude":106.58047285,"street":"D16/89 Đinh Đức Thiện, Xã Bình Chánh, Huyện Bình Chánh"},"phone":"+84772792228"},"id":"217350938852654"},{"name":"Thẩm mỹ Thanh Phượng","checkins":4,"page":{"id":"277652742742804","fan_count":2,"name":"Thẩm mỹ Thanh Phượng","link":"https://www.facebook.com/277652742742804","location":{"city":"Ho Chi Minh City","latitude":10.6606819,"longitude":106.57691739,"street":"Đinh đức thiện"}},"id":"277652749409470"},{"name":"Chăm Sóc Da-Thẩm Mỹ Ái Vân","checkins":1,"page":{"id":"973142652861820","fan_count":0,"name":"Chăm Sóc Da-Thẩm Mỹ Ái Vân","link":"https://www.facebook.com/973142652861820","location":{"city":"Ho Chi Minh City","latitude":10.6572293,"longitude":106.5826906},"phone":"+84908326858"},"id":"973142766195142"},{"name":"Câu Lạc Bộ Thể Hình-Thẩm Mỹ Nam-Nữ Sang Sport","checkins":291,"page":{"id":"1365172540205991","fan_count":4,"name":"Câu Lạc Bộ Thể Hình-Thẩm Mỹ Nam-Nữ Sang Sport","link":"https://www.facebook.com/1365172540205991","location":{"city":"Ho Chi Minh City","latitude":10.66388,"longitude":106.6105,"street":"ĐƯỜNG An Phú Tây-Hưng Long"}},"id":"1365172546872657"},{"name":"Câu Lạc Bộ Thể Hình-Thẩm Mỹ Nam-Nữ Sang Sport","checkins":11,"page":{"id":"1382598031847626","fan_count":0,"name":"Câu Lạc Bộ Thể Hình-Thẩm Mỹ Nam-Nữ Sang Sport","link":"https://www.facebook.com/1382598031847626","location":{"city":"Ho Chi Minh City","latitude":10.66355,"longitude":106.61025,"street":"ĐƯỜNG An Phú Tây-Hưng Long"}},"id":"1382598051847624"},{"name":"Câu Lạc Bộ Thể Hình-Thẩm Mỹ Nam-Nữ Sang Sport","checkins":291,"page":{"id":"1365172540205991","fan_count":4,"name":"Câu Lạc Bộ Thể Hình-Thẩm Mỹ Nam-Nữ Sang Sport","link":"https://www.facebook.com/1365172540205991","location":{"city":"Ho Chi Minh City","latitude":10.66388,"longitude":106.6105,"street":"ĐƯỜNG An Phú Tây-Hưng Long"}},"id":"1365172546872657"},{"name":"Câu Lạc Bộ Thể Hình-Thẩm Mỹ Nam-Nữ Sang Sport","checkins":11,"page":{"id":"1382598031847626","fan_count":0,"name":"Câu Lạc Bộ Thể Hình-Thẩm Mỹ Nam-Nữ Sang Sport","link":"https://www.facebook.com/1382598031847626","location":{"city":"Ho Chi Minh City","latitude":10.66355,"longitude":106.61025,"street":"ĐƯỜNG An Phú Tây-Hưng Long"}},"id":"1382598051847624"},{"name":"Mỹ Viện Spa Kvivi","checkins":5,"page":{"id":"601547123331528","fan_count":17,"name":"Mỹ Viện Spa Kvivi","link":"https://www.facebook.com/601547123331528","location":{"city":"Ho Chi Minh City","latitude":10.6447255,"longitude":106.63546405,"street":"B1/12 đinh đức thiên, bình chánh,  hồ chí minh"}},"id":"601547136664860"},{"name":"Trinh Beauty - Phun Thêu Điêu Khắc Thẩm Mỹ","checkins":2,"page":{"id":"104682457782843","fan_count":78,"name":"Trinh Beauty - Phun Thêu Điêu Khắc Thẩm Mỹ","link":"https://www.facebook.com/104682457782843","about":"CHUYÊN PHUN THÊU ĐIÊU KHẮC THẨM MỸ MÀY, MÔI, MÍ. Cập nhật những công nghệ mới nhất trong ngành Phun Xăm Thẩm Mỹ. Tự tin đem đến cho bạn sản phẩm tuyệt vời !!","location":{"latitude":10.660607953625,"longitude":106.69921875,"street":"120 đường 3 tháng 2 phường 12 quận 10"},"phone":"+84367769506"},"id":"104697014448054"},{"name":"Trinh Beauty - Phun Thêu Điêu Khắc Thẩm Mỹ","checkins":2,"page":{"id":"104682457782843","fan_count":78,"name":"Trinh Beauty - Phun Thêu Điêu Khắc Thẩm Mỹ","link":"https://www.facebook.com/104682457782843","about":"CHUYÊN PHUN THÊU ĐIÊU KHẮC THẨM MỸ MÀY, MÔI, MÍ. Cập nhật những công nghệ mới nhất trong ngành Phun Xăm Thẩm Mỹ. Tự tin đem đến cho bạn sản phẩm tuyệt vời !!","location":{"latitude":10.660607953625,"longitude":106.69921875,"street":"120 đường 3 tháng 2 phường 12 quận 10"},"phone":"+84367769506"},"id":"104697014448054"},{"name":"Thẩm Mỹ Thảo Như","checkins":0,"page":{"id":"105603437911042","fan_count":921,"name":"Thẩm Mỹ Thảo Như","link":"https://www.facebook.com/105603437911042","about":"chuyên cung cấp các dịch vụ chăm sóc da làm đẹp","location":{"city":"Nhà Bè District","latitude":10.661,"longitude":106.7269,"street":"93.6 ấp 6 Phú Xuân Nhà Bè tphcm"},"phone":"0934064678"},"id":"105603601244359"},{"name":"Phun Xăm Thẩm Mỹ - Anne Beauty Studio","checkins":11,"page":{"id":"107740844030558","fan_count":128,"name":"Phun Xăm Thẩm Mỹ - Anne Beauty Studio","link":"https://www.facebook.com/107740844030558","about":"Chuyên Phun Xăm Thẩm Mỹ Mày, Môi, Mí","location":{"city":"Ho Chi Minh City","latitude":10.66525,"longitude":106.72547,"street":"102 Nguyễn Văn Tạo, Ấp 3, Xã Long Thới, Huyện Nhà Bè"},"phone":"+84938771933"},"id":"160380468766595"},{"name":"Thẩm Mỹ Viện Sắc Đẹp Ngân Hà Spa","checkins":0,"page":{"id":"100661671687683","fan_count":3,"name":"Thẩm Mỹ Viện Sắc Đẹp Ngân Hà Spa","link":"https://www.facebook.com/100661671687683","location":{"city":"Binh Thanh","latitude":10.66564,"longitude":106.77554,"street":"Bình Thạnh"},"phone":"0333324936"},"id":"100661921687658"},{"name":"Thẩm Mỹ Mũi - Thay Đổi Nhan Sắc","checkins":0,"page":{"id":"111631067249221","fan_count":15,"name":"Thẩm Mỹ Mũi - Thay Đổi Nhan Sắc","link":"https://www.facebook.com/111631067249221","about":"Bác Sĩ Phẩu Thuật Thẩm Mỹ","location":{"city":"Ho Chi Minh City","latitude":10.647266298105,"longitude":106.81478961204,"street":"duong 3 thang 2"},"phone":"+84931409952"},"id":"111736770571984"},{"name":"Viện Thẩm Mỹ Jang Mi","checkins":211,"page":{"id":"109396787372132","fan_count":680,"name":"Viện Thẩm Mỹ Jang Mi","link":"https://www.facebook.com/109396787372132","about":"Viện Thẩm Mỹ JANG MI","location":{"city":"Châu Thành","latitude":10.643141204542,"longitude":106.54009059994,"street":"Tân Hương"},"phone":"+84354656029"},"id":"109418184036659"},{"name":"Viện Thẩm Mỹ Jang Mi","checkins":211,"page":{"id":"109396787372132","fan_count":680,"name":"Viện Thẩm Mỹ Jang Mi","link":"https://www.facebook.com/109396787372132","about":"Viện Thẩm Mỹ JANG MI","location":{"city":"Châu Thành","latitude":10.643141204542,"longitude":106.54009059994,"street":"Tân Hương"},"phone":"+84354656029"},"id":"109418184036659"},{"name":"Phẫu Thuật Thẩm Mỹ Vinmecr+ HCM","checkins":0,"page":{"id":"105698497979516","fan_count":2,"name":"Phẫu Thuật Thẩm Mỹ Vinmecr+ HCM","link":"https://www.facebook.com/105698497979516","about":"Phẫu Thuật Thẩm Mỹ Vinmecr+ HCM","location":{"latitude":10.636324331858,"longitude":106.62287534174,"street":"656/82 Cách Mạng Tháng 8 - P11 - Q3"},"phone":"+84859961555"},"id":"110290670853632"},{"name":"Mỹ Viện Spa Kvivi","checkins":5,"page":{"id":"601547123331528","fan_count":17,"name":"Mỹ Viện Spa Kvivi","link":"https://www.facebook.com/601547123331528","location":{"city":"Ho Chi Minh City","latitude":10.6447255,"longitude":106.63546405,"street":"B1/12 đinh đức thiên, bình chánh,  hồ chí minh"}},"id":"601547136664860"},{"name":"Thẩm Mỹ Mũi - Thay Đổi Nhan Sắc","checkins":0,"page":{"id":"111631067249221","fan_count":15,"name":"Thẩm Mỹ Mũi - Thay Đổi Nhan Sắc","link":"https://www.facebook.com/111631067249221","about":"Bác Sĩ Phẩu Thuật Thẩm Mỹ","location":{"city":"Ho Chi Minh City","latitude":10.647266298105,"longitude":106.81478961204,"street":"duong 3 thang 2"},"phone":"+84931409952"},"id":"111736770571984"}]